code,nameHeb,pronaunce,district,shire,naturalArea,monicipal,metro,religion,population,jewsAndOthers,jews,arabs,estbYear,type,ITM,altitude,orgazinationRelated,plansComit,policeArea,year,nameEng,localCuncil,name,lat,long
967,אבו ג'ווייעד (שבט),ABU JUWEI'ID,6,62,623.0,,,3.0,,,,,,460,,2040057100.0,,699.0,15003711.0,2018,Abu Juway'ad,,Abu Juway'ad,,
472,אבו גוש,ABU GHOSH,1,11,111.0,99.0,444.0,2.0,7543.0,97.0,79.0,7446.0,,280,,2105263481.0,598.0,152.0,10002475.0,2018,Abu Ghosh,,Abu Ghosh,31.806293,35.109193
473,אבו סנאן,ABU SINAN,2,24,245.0,99.0,,2.0,13915.0,28.0,11.0,13887.0,,270,,2160776284.0,19.0,252.0,10004315.0,2018,Abu Sinan,,Abu Sinan,32.95803,35.171969
935,אבו סריחאן (שבט),ABU SUREIHAN,6,62,623.0,,,3.0,,,,,,460,,1865057450.0,,699.0,10001937.0,2018,Abu Surayhan,,Abu Surayhan,,
958,אבו עבדון (שבט),ABU ABDUN,6,62,623.0,,,3.0,,,,,,460,,1850057900.0,,699.0,10001937.0,2018,Abu 'Abdun,,Abu 'Abdun,31.301396999999998,34.841654999999996
1042,אבו עמאר (שבט),ABU AMMAR,6,62,623.0,,,3.0,,,,,,460,,1950056700.0,,699.0,15003711.0,2018,Abu 'Ammar,,Abu 'Ammar,,
932,אבו עמרה (שבט),ABU AMRE,6,62,623.0,,,3.0,,,,,,460,,1850057100.0,,699.0,10001937.0,2018,Abu 'Amra,,Abu 'Amra,31.282188,34.872739
1342,אבו קורינאת (יישוב),ABU QUREINAT,6,62,623.0,68.0,,2.0,1815.0,,,1815.0,,450,,1963656105.0,410.0,624.0,15003711.0,2018,Abu Qureinat,610.0,Abu Qureinat,31.145681,34.965476
968,אבו קורינאת (שבט),ABU QUREINAT,6,62,623.0,,,3.0,,,,,,460,,1970056000.0,,699.0,15003711.0,2018,Abu Kuraynat,,Abu Kuraynat,,
966,אבו רובייעה (שבט),ABU RUBEI'A,6,62,623.0,,,3.0,,,,,,460,,2050057200.0,,699.0,10001937.0,2018,Abu Rubay'a,,Abu Rubay'a,,
961,אבו רוקייק (שבט),ABU RUQAYYEQ,6,62,623.0,,,3.0,,,,,,460,,1920056600.0,,699.0,15003711.0,2018,Abu Rukayyek,,Abu Rukayyek,,
1375,אבו תלול,ABU TULUL,6,62,623.0,68.0,,2.0,1822.0,1.0,,1821.0,,450,,1933456589.0,340.0,624.0,15003711.0,2018,Abu Tulul,610.0,Abu Tulul,31.142612,34.913514
652,אבטין,IBTIN,3,31,311.0,12.0,222.0,2.0,2773.0,2.0,2.0,2771.0,,290,,2108874076.0,19.0,301.0,10004207.0,2018,Ibtin,,Ibtin,32.759963,35.114601
1275,אבטליון,AVTALYON,2,24,241.0,56.0,,1.0,470.0,470.0,450.0,,1987,370,10.0,2331474908.0,308.0,205.0,10004513.0,2018,Avtalyon,210.0,Avtalyon,32.835781,35.350442
679,אביאל,AVI'EL,3,32,324.0,45.0,,1.0,815.0,815.0,799.0,,1949,310,9.0,1996171533.0,30.0,351.0,10004333.0,2018,Avi'el,,Avi'el,32.531346,34.993493
1115,אביבים,AVIVIM,2,21,212.0,2.0,,1.0,477.0,477.0,476.0,,1960,310,1.0,2444177707.0,668.0,209.0,10004528.0,2018,Avivim,211.0,Avivim,33.089381,35.470338
819,אביגדור,AVIGEDOR,6,61,611.0,33.0,143.0,1.0,820.0,820.0,813.0,,1950,310,1.0,1757362428.0,55.0,616.0,10001821.0,2018,Avigedor,420.0,Avigedor,31.711901,34.740369
175,אביחיל,AVIHAYIL,4,41,411.0,16.0,141.0,1.0,1410.0,1410.0,1375.0,,1932,310,1.0,1880869527.0,20.0,409.0,10002089.0,2018,Avihayil,,Avihayil,32.350708000000004,34.871229
2052,אביטל,AVITAL,2,23,234.0,8.0,,1.0,502.0,501.0,501.0,1.0,1953,310,1.0,2291271816.0,68.0,204.0,10004394.0,2018,Avital,213.0,Avital,32.557676,35.306412
1070,אביעזר,AVI'EZER,1,11,112.0,26.0,444.0,1.0,865.0,865.0,857.0,,1958,310,2.0,2016662104.0,329.0,151.0,15000597.0,2018,Avi'ezer,,Avi'ezer,31.681996,35.018821
1220,אבירים,ABBIRIM,2,24,244.0,52.0,,1.0,227.0,227.0,211.0,,1980,370,19.0,2271577149.0,541.0,255.0,10004484.0,2018,Abbirim,212.0,Abbirim,33.038086,35.286044
182,אבן יהודה,EVEN YEHUDA,4,41,411.0,99.0,141.0,1.0,13700.0,13698.0,13495.0,2.0,1932,170,,1894468643.0,10.0,457.0,15000060.0,2018,Even Yehuda,,Even Yehuda,32.270042600000004,34.8809634
1081,אבן מנחם,EVEN MENAHEM,2,24,244.0,52.0,,1.0,297.0,297.0,293.0,,1960,310,1.0,2278277545.0,550.0,255.0,10004302.0,2018,Even Menahem,212.0,Even Menahem,33.075143,35.295219
783,אבן ספיר,EVEN SAPPIR,1,11,111.0,26.0,444.0,1.0,724.0,722.0,704.0,2.0,1950,310,1.0,2128463002.0,571.0,151.0,10002521.0,2018,Even Sappir,,Even Sappir,31.7625,35.134991
400,אבן שמואל,EVEN SHEMU'EL,6,61,612.0,34.0,,1.0,1675.0,1675.0,1673.0,,1956,350,,1775460940.0,150.0,631.0,10001813.0,2018,Even Shemu'el,,Even Shemu'el,31.576428999999997,34.762963
4011,אבני איתן,AVNE ETAN,2,29,294.0,71.0,,1.0,714.0,714.0,714.0,,1978,310,2.0,2719674774.0,346.0,219.0,10004579.0,2018,Avne Etan,211.0,Avne Etan,32.824808000000004,35.765777
3793,אבני חפץ,AVNE HEFEZ,7,73,,72.0,,1.0,1895.0,1895.0,1883.0,,1990,370,11.0,2070868793.0,143.0,710.0,10003262.0,2018,Avne Hefez,,Avne Hefez,32.284628000000005,35.074551
3786,אבנת,AVENAT,7,75,,74.0,,1.0,185.0,185.0,185.0,,1983,370,,2414762075.0,-359.0,713.0,10003314.0,2018,Avenat,,Avenat,31.679039000000003,35.436945
1311,אבשלום,AVSHALOM,6,62,622.0,38.0,,1.0,274.0,274.0,196.0,,1990,370,10.0,1361956745.0,89.0,651.0,10001893.0,2018,Avshalom,620.0,Avshalom,31.195396999999996,34.3312
3759,אדורה,ADORA,7,77,,78.0,,1.0,440.0,440.0,434.0,,1984,370,9.0,2016960665.0,552.0,715.0,15003512.0,2018,Adora,,Adora,31.552219,35.017634
113,אדירים,ADDIRIM,2,23,234.0,8.0,,1.0,279.0,279.0,278.0,,1956,310,1.0,2257971719.0,69.0,204.0,10004394.0,2018,Addirim,213.0,Addirim,32.548941,35.271637
1068,אדמית,ADAMIT,2,24,244.0,4.0,,1.0,209.0,209.0,183.0,,1958,330,15.0,2199777600.0,409.0,201.0,10004302.0,2018,Adamit,212.0,Adamit,33.078842,35.209509999999995
1123,אדרת,ADDERET,1,11,112.0,26.0,444.0,1.0,848.0,848.0,848.0,,1961,310,1.0,1995861869.0,396.0,151.0,15000597.0,2018,Adderet,,Adderet,31.659715000000002,34.994440000000004
446,אודים,UDIM,4,41,411.0,19.0,141.0,1.0,1375.0,1375.0,1338.0,,1948,310,10.0,1858268581.0,10.0,401.0,15000060.0,2018,Udim,,Udim,32.266865,34.846995
4010,אודם,ODEM,2,29,292.0,71.0,,1.0,139.0,139.0,136.0,,1976,320,6.0,2702878880.0,1019.0,219.0,10004579.0,2018,Odem,211.0,Odem,33.1933716,35.7495651
1046,אוהד,OHAD,6,62,622.0,38.0,,1.0,407.0,389.0,387.0,18.0,1969,310,1.0,1458057199.0,131.0,651.0,10001893.0,2018,Ohad,620.0,Ohad,31.238436,34.431893
2710,אום אל-פחם,UMM AL-FAHM,3,32,323.0,0.0,,2.0,55182.0,44.0,21.0,55138.0,,250,,2145171399.0,139.0,354.0,10004249.0,2018,Umm al-Fahm,,Umm al-Fahm,32.517127,35.148528999999996
2024,אום אל-קוטוף,UMM AL-QUTUF,3,32,323.0,14.0,,2.0,1093.0,,,1093.0,,450,,2055370835.0,89.0,351.0,10004233.0,2018,Umm Al-Qutuf,,Umm Al-Qutuf,32.468084000000005,35.059149
1358,אום בטין,UMM BATIN,6,62,623.0,69.0,342.0,2.0,4093.0,13.0,12.0,4080.0,,290,,1886757656.0,310.0,624.0,10001937.0,2018,Umm Batin,610.0,Umm Batin,31.276743699999997,34.8829215
1108,אומן,OMEN,2,23,234.0,8.0,,1.0,368.0,368.0,342.0,,1958,350,,2230271878.0,64.0,204.0,10004394.0,2018,Omen,213.0,Omen,32.564279,35.241941
680,אומץ,OMEZ,4,41,412.0,16.0,141.0,1.0,832.0,831.0,820.0,1.0,1949,310,1.0,1996969743.0,27.0,409.0,15000060.0,2018,Omez,,Omez,32.369215999999994,34.993128999999996
31,אופקים,OFAQIM,6,62,622.0,0.0,,1.0,29021.0,28820.0,26936.0,201.0,1955,160,,1638257979.0,113.0,601.0,10001893.0,2018,Ofaqim,620.0,Ofaqim,31.311336999999998,34.622824
1294,אור הגנוז,OR HAGANUZ,2,21,212.0,2.0,,1.0,548.0,548.0,548.0,,1989,320,11.0,2421276781.0,716.0,209.0,10004528.0,2018,Or HaGanuz,211.0,Or HaGanuz,33.005183,35.446736
67,אור הנר,OR HANER,6,61,614.0,37.0,,1.0,754.0,754.0,726.0,,1957,330,15.0,1620260736.0,44.0,651.0,10001829.0,2018,Or HaNer,620.0,Or HaNer,31.556196999999997,34.602305
2400,אור יהודה,OR YEHUDA,5,52,512.0,0.0,122.0,1.0,36864.0,36805.0,36041.0,59.0,1950,160,,1863265962.0,1.0,510.0,10001516.0,2018,Or Yehuda,,Or Yehuda,32.029748,34.856173
1020,אור עקיבא,OR AQIVA,3,32,324.0,0.0,,1.0,18236.0,18143.0,16787.0,93.0,1951,170,,1927371262.0,10.0,353.0,10004261.0,2018,Or Aqiva,,Or Aqiva,32.509965,34.920394
780,אורה,ORA,1,11,111.0,26.0,444.0,1.0,1337.0,1334.0,1279.0,3.0,1950,310,1.0,2145762903.0,734.0,151.0,10002521.0,2018,Ora,,Ora,31.752109,35.150165
2012,אורות,OROT,6,61,611.0,33.0,143.0,1.0,507.0,507.0,502.0,,1952,310,1.0,1749262782.0,40.0,616.0,10001821.0,2018,Orot,420.0,Orot,31.740364000000003,34.7356
4013,אורטל,ORTAL,2,29,292.0,71.0,,1.0,343.0,343.0,343.0,,1978,330,15.0,2712077700.0,859.0,219.0,10004579.0,2018,Ortal,211.0,Ortal,33.086236,35.758661
403,אורים,URIM,6,62,622.0,38.0,,1.0,493.0,492.0,456.0,1.0,1946,330,15.0,1545457936.0,93.0,651.0,10001893.0,2018,Urim,620.0,Urim,31.304094,34.524868
882,אורנים,ORANIM,3,31,311.0,12.0,222.0,1.0,179.0,95.0,94.0,84.0,1951,340,,2104973529.0,43.0,301.0,10004207.0,2018,Oranim,,Oranim,32.711224,35.109579
3760,אורנית,ORANIT,7,73,,99.0,145.0,1.0,8807.0,8797.0,8678.0,10.0,1985,180,,1995467087.0,60.0,718.0,10003262.0,2018,Oranit,,Oranit,32.131924,34.990809999999996
278,אושה,USHA,3,31,311.0,12.0,222.0,1.0,492.0,492.0,481.0,,1937,330,15.0,2110474459.0,19.0,301.0,10004207.0,2018,Usha,,Usha,32.796458,35.114584
565,אזור,AZOR,5,53,513.0,99.0,123.0,1.0,12854.0,12822.0,12084.0,32.0,1948,170,,1819465899.0,19.0,509.0,10001430.0,2018,Azor,,Azor,32.0245041,34.8058575
1157,אחווה,AHAWA,6,61,611.0,33.0,143.0,1.0,351.0,351.0,341.0,,1976,350,,1782062796.0,60.0,616.0,10001821.0,2018,Ahawa,420.0,Ahawa,31.7776829,35.22419779999999
821,אחוזם,AHUZZAM,6,61,612.0,50.0,,1.0,544.0,538.0,525.0,6.0,1950,310,2.0,1782260687.0,160.0,634.0,10001813.0,2018,Ahuzzam,,Ahuzzam,31.552682,34.770151
1330,אחוזת ברק,AHUZZAT BARAQ,2,23,234.0,9.0,,1.0,2256.0,2256.0,2197.0,,1998,190,,2320072762.0,129.0,254.0,10004394.0,2018,Ahuzzat Baraq,213.0,Ahuzzat Baraq,32.643101,35.338893
785,אחיהוד,AHIHUD,2,24,246.0,4.0,241.0,1.0,868.0,868.0,859.0,,1950,310,1.0,2165275698.0,20.0,201.0,10004315.0,2018,Ahihud,212.0,Ahihud,32.907405,35.171715
850,אחיטוב,AHITUV,4,41,412.0,16.0,141.0,1.0,1099.0,1099.0,1089.0,,1951,310,1.0,1993269934.0,39.0,409.0,15000060.0,2018,Ahituv,,Ahituv,32.387701,34.990826
804,אחיסמך,AHISAMAKH,4,43,432.0,25.0,142.0,1.0,1374.0,1374.0,1372.0,,1950,310,1.0,1914164919.0,58.0,424.0,10002261.0,2018,Ahisamakh,,Ahisamakh,31.931906,34.908576000000004
797,אחיעזר,AHI'EZER,4,43,432.0,40.0,133.0,1.0,1872.0,1871.0,1865.0,1.0,1950,310,2.0,1879365441.0,40.0,425.0,10002261.0,2018,Ahi'ezer,,Ahi'ezer,31.981671000000002,34.871821000000004
965,אטרש (שבט),ATRASH,6,62,623.0,,,3.0,,,,,,460,,1940057520.0,,699.0,10001937.0,2018,Atrash,,Atrash,31.264619,34.948586999999996
338,איבים,IBBIM,6,61,614.0,37.0,,1.0,277.0,277.0,40.0,,1991,340,,1629760477.0,69.0,651.0,10001829.0,2018,Ibbim,620.0,Ibbim,31.533596999999997,34.609697
716,אייל,EYAL,4,42,421.0,20.0,141.0,1.0,522.0,522.0,515.0,,1949,330,15.0,1982567982.0,67.0,417.0,10002155.0,2018,Eyal,,Eyal,32.210710999999996,34.978259
77,איילת השחר,AYYELET HASHAHAR,2,21,211.0,1.0,,1.0,1134.0,1134.0,1082.0,,1918,330,15.0,2541976987.0,143.0,253.0,10004540.0,2018,Ayyelet HaShahar,211.0,Ayyelet HaShahar,33.021115,35.576732
294,אילון,ELON,2,24,244.0,4.0,,1.0,1020.0,1014.0,987.0,6.0,1938,330,15.0,2206177423.0,217.0,201.0,10004302.0,2018,Elon,212.0,Elon,33.062526,35.219162
1126,אילות,ELOT,6,62,625.0,53.0,,1.0,317.0,312.0,294.0,5.0,1962,330,15.0,1960538819.0,41.0,608.0,10001955.0,2018,Elot,,Elot,29.580547999999997,34.963023
49,אילנייה,ILANIYYA,2,22,222.0,3.0,,1.0,490.0,484.0,463.0,6.0,1902,310,10.0,2384773998.0,199.0,206.0,10004552.0,2018,Ilaniyya,214.0,Ilaniyya,32.753908,35.408188
2600,אילת,ELAT,6,62,625.0,0.0,,1.0,51935.0,49675.0,41906.0,2260.0,1951,150,,1941738510.0,-5.0,602.0,10001955.0,2018,Elat,,Elat,29.557669,34.951925
1336,אירוס,IRUS,4,44,442.0,27.0,143.0,1.0,622.0,622.0,615.0,,2013,370,,1790064853.0,29.0,456.0,15002488.0,2018,Irus,,Irus,31.928574600000005,34.7766539
3762,איתמר,ITAMAR,7,72,,72.0,,1.0,1238.0,1237.0,1236.0,1.0,1984,370,11.0,2292167559.0,561.0,710.0,10003262.0,2018,Itamar,,Itamar,32.173869,35.308029
37,איתן,ETAN,6,61,612.0,34.0,,1.0,456.0,456.0,454.0,,1955,310,2.0,1761460898.0,150.0,631.0,10001813.0,2018,Etan,,Etan,31.572213,34.747909
886,איתנים,ETANIM,1,11,111.0,26.0,444.0,1.0,80.0,75.0,75.0,5.0,1952,340,,2091163181.0,683.0,151.0,15000597.0,2018,Etanim,,Etanim,31.7789,35.095169
478,אכסאל,IKSAL,2,23,237.0,99.0,,2.0,14500.0,6.0,1.0,14494.0,,270,,2307173191.0,90.0,257.0,10004394.0,2018,Iksal,213.0,Iksal,32.682085,35.320743
1339,אל -עזי,AL-AZY,6,61,611.0,35.0,,2.0,188.0,1.0,1.0,187.0,,450,,1809962556.0,80.0,632.0,10001821.0,2018,Al-Azy,420.0,Al-Azy,31.718868,34.814254
1316,אל -עריאן,AL-ARYAN,3,32,323.0,14.0,,2.0,191.0,,,191.0,,450,,2120271154.0,344.0,351.0,10004233.0,2018,Al-Aryan,,Al-Aryan,32.498076,35.125094
4003,אל -רום,EL-ROM,2,29,292.0,71.0,,1.0,392.0,392.0,375.0,,1971,330,15.0,2723178736.0,1039.0,219.0,10004579.0,2018,El-Rom,211.0,El-Rom,33.180519,35.770095
1359,אל סייד,AL SAYYID,6,62,623.0,69.0,342.0,2.0,5663.0,11.0,11.0,5652.0,,280,,1917857711.0,350.0,624.0,10001937.0,2018,Al Sayyid,610.0,Al Sayyid,31.281719,34.916298
1145,אלומה,ALUMMA,6,61,611.0,34.0,,1.0,514.0,514.0,514.0,,1965,350,,1757561777.0,80.0,631.0,10001813.0,2018,Alumma,,Alumma,31.652040999999997,34.742872
330,אלומות,ALUMMOT,2,22,221.0,6.0,,1.0,410.0,409.0,400.0,1.0,1941,330,15.0,2515173475.0,-8.0,214.0,10004552.0,2018,Alummot,214.0,Alummot,32.706628,35.546088
1182,אלון הגליל,ALLON HAGALIL,2,23,237.0,9.0,242.0,1.0,1115.0,1115.0,1108.0,,1980,310,1.0,2208574025.0,160.0,254.0,10004497.0,2018,Allon HaGalil,213.0,Allon HaGalil,32.756873999999996,35.220294
3579,אלון מורה,ELON MORE,7,72,,72.0,,1.0,1946.0,1946.0,1945.0,,1979,370,11.0,2314668228.0,551.0,710.0,10003262.0,2018,Elon More,,Elon More,32.234418,35.331201
3604,אלון שבות,ALLON SHEVUT,7,76,,76.0,445.0,1.0,3151.0,3151.0,3148.0,,1970,190,,2120261805.0,927.0,714.0,15000586.0,2018,Allon Shevut,,Allon Shevut,31.654871000000004,35.125256
429,אלוני אבא,ALLONE ABBA,2,23,237.0,9.0,242.0,1.0,991.0,991.0,990.0,,1948,320,6.0,2162873720.0,120.0,254.0,10004411.0,2018,Allone Abba,213.0,Allone Abba,32.730945,35.172028000000005
4017,אלוני הבשן,ALLONE HABASHAN,2,29,292.0,71.0,,1.0,445.0,445.0,444.0,,1981,320,2.0,2786977222.0,930.0,219.0,10004579.0,2018,Allone HaBashan,211.0,Allone HaBashan,33.044087,35.838507
868,אלוני יצחק,ALLONE YIZHAQ,3,32,324.0,14.0,,1.0,302.0,298.0,221.0,4.0,1949,340,,2006271295.0,54.0,351.0,10004333.0,2018,Allone Yizhaq,,Allone Yizhaq,32.509997,35.0052
285,אלונים,ALLONIM,2,23,235.0,9.0,242.0,1.0,504.0,504.0,494.0,,1938,330,15.0,2139173611.0,70.0,254.0,10004411.0,2018,Allonim,213.0,Allonim,32.721459,35.143399
4002,אלי-עד,ELI-AD,2,29,294.0,71.0,,1.0,401.0,401.0,385.0,,1968,310,1.0,2691974579.0,346.0,219.0,10004579.0,2018,Eli-Ad,211.0,Eli-Ad,32.806583,35.736575
1365,אליאב,ELIAV,6,61,612.0,50.0,,1.0,427.0,427.0,427.0,,2013,370,,1934260408.0,335.0,634.0,10001813.0,2018,Eliav,,Eliav,31.530203000000004,34.928414000000004
41,אליכין,ELYAKHIN,4,41,411.0,99.0,141.0,1.0,3486.0,3483.0,3446.0,3.0,1950,190,,1931870156.0,25.0,457.0,10004261.0,2018,Elyakhin,,Elyakhin,32.407659,34.925028000000005
1248,אליפז,ELIFAZ,6,62,625.0,53.0,,1.0,152.0,145.0,119.0,7.0,1982,330,15.0,2007941184.0,112.0,608.0,10001955.0,2018,Elifaz,,Elifaz,29.796248,35.012094
730,אליפלט,ELIFELET,2,21,213.0,55.0,,1.0,633.0,633.0,626.0,,1949,310,1.0,2515276149.0,284.0,253.0,10004540.0,2018,Elifelet,211.0,Elifelet,32.947834,35.548516
682,אליקים,ELYAQIM,2,23,236.0,13.0,,1.0,888.0,888.0,879.0,,1949,310,1.0,2065872642.0,209.0,254.0,10004394.0,2018,Elyaqim,213.0,Elyaqim,32.633345,35.067613
204,אלישיב,ELYASHIV,4,41,411.0,16.0,141.0,1.0,733.0,733.0,727.0,,1933,310,7.0,1917069855.0,10.0,409.0,15000060.0,2018,Elyashiv,,Elyashiv,32.380196000000005,34.909945
841,אלישמע,ELISHAMA,4,42,421.0,20.0,142.0,1.0,1199.0,1198.0,1191.0,1.0,1951,310,1.0,1934267328.0,24.0,417.0,10002133.0,2018,Elishama,,Elishama,32.154778,34.930461
1125,אלמגור,ALMAGOR,2,22,221.0,6.0,,1.0,389.0,389.0,377.0,,1961,310,1.0,2566875753.0,-74.0,214.0,10004552.0,2018,Almagor,214.0,Almagor,32.912709,35.602309999999996
3556,אלמוג,ALMOG,7,75,,74.0,,1.0,253.0,252.0,246.0,1.0,1977,330,15.0,2437863294.0,-296.0,713.0,10003314.0,2018,Almog,,Almog,31.790034000000002,35.461968
1309,אלעד,EL'AD,4,42,422.0,0.0,142.0,1.0,47866.0,47866.0,47847.0,,1998,160,,1960566200.0,50.0,422.0,10002168.0,2018,El'ad,,El'ad,32.04953,34.95075
3618,אלעזר,EL'AZAR,7,76,,76.0,445.0,1.0,2510.0,2510.0,2506.0,,1975,190,,2135261872.0,873.0,714.0,15000586.0,2018,El'azar,,El'azar,31.659676,35.143074
3750,אלפי מנשה,ALFE MENASHE,7,73,,99.0,145.0,1.0,7865.0,7864.0,7589.0,1.0,1983,180,,2014467560.0,70.0,703.0,10003262.0,2018,Alfe Menashe,,Alfe Menashe,32.170631,35.014858000000004
603,אלקוש,ELQOSH,2,24,244.0,52.0,,1.0,292.0,292.0,291.0,,1949,310,1.0,2306077091.0,600.0,255.0,10004484.0,2018,Elqosh,212.0,Elqosh,33.034294,35.326347999999996
3560,אלקנה,ELQANA,7,73,,99.0,145.0,1.0,3812.0,3812.0,3807.0,,1977,190,,2036366868.0,153.0,702.0,10003262.0,2018,Elqana,,Elqana,32.110566,35.032053999999995
772,אמונים,EMUNIM,6,61,611.0,33.0,143.0,1.0,979.0,979.0,963.0,,1950,310,1.0,1694062801.0,30.0,616.0,10001821.0,2018,Emunim,420.0,Emunim,31.743885,34.674492
1064,אמירים,AMIRIM,2,21,212.0,2.0,,1.0,837.0,836.0,786.0,1.0,1950,310,1.0,2425676027.0,443.0,209.0,10004528.0,2018,Amirim,211.0,Amirim,32.937351,35.450365000000005
1253,אמנון,AMNUN,2,21,213.0,55.0,,1.0,319.0,319.0,309.0,,1983,310,6.0,2537975663.0,-55.0,253.0,10004540.0,2018,Amnun,211.0,Amnun,32.904989,35.571135999999996
23,אמציה,AMAZYA,6,61,612.0,50.0,,1.0,353.0,349.0,346.0,4.0,1955,320,9.0,1918460450.0,330.0,634.0,10001813.0,2018,Amazya,,Amazya,31.531176000000002,34.914463
4012,אניעם,ANI'AM,2,29,293.0,71.0,,1.0,531.0,531.0,516.0,,1978,310,1.0,2695476260.0,389.0,219.0,10004579.0,2018,Ani'am,211.0,Ani'am,32.956638,35.739717999999996
960,אסד (שבט),ASAD,6,62,623.0,,,3.0,,,,,,460,,1880058150.0,,699.0,10001937.0,2018,Asad,,Asad,32.93445,35.268394
3754,אספר,ASFAR,7,77,,76.0,,1.0,835.0,835.0,835.0,,1983,370,8.0,2178461041.0,891.0,714.0,15000586.0,2018,Asfar,,Asfar,31.586152000000002,35.187594
529,אעבלין,I'BILLIN,2,24,241.0,99.0,241.0,2.0,13128.0,17.0,3.0,13111.0,,270,,2176474799.0,19.0,261.0,10004497.0,2018,I'billin,,I'billin,32.821799,35.19012
959,אפיניש (שבט),AFEINISH,6,62,623.0,,,3.0,,,,,,460,,1990058000.0,,699.0,10001937.0,2018,Afaynish,,Afaynish,,
4301,אפיק,AFIQ,2,29,294.0,71.0,,1.0,329.0,329.0,289.0,,1967,330,15.0,2660674275.0,309.0,219.0,10004579.0,2018,Afiq,211.0,Afiq,32.779428,35.702994
176,אפיקים,AFIQIM,2,22,221.0,6.0,,1.0,1494.0,1490.0,1427.0,4.0,1932,330,15.0,2544973191.0,-202.0,214.0,10004552.0,2018,Afiqim,214.0,Afiqim,32.680564000000004,35.577729999999995
313,אפק,AFEQ,2,24,246.0,4.0,241.0,1.0,684.0,671.0,665.0,13.0,1939,330,15.0,2122974931.0,11.0,201.0,10004207.0,2018,Afeq,212.0,Afeq,32.838316,35.12778
3650,אפרת,EFRAT,7,76,,99.0,445.0,1.0,10088.0,10088.0,10064.0,,1980,170,,2149861904.0,667.0,704.0,15000586.0,2018,Efrat,,Efrat,31.653589,35.149934
701,ארבל,ARBEL,2,22,222.0,3.0,,1.0,738.0,738.0,729.0,,1949,310,1.0,2456774647.0,20.0,206.0,10004552.0,2018,Arbel,214.0,Arbel,32.8241667,35.498611100000005
3598,ארגמן,ARGAMAN,7,75,,75.0,,1.0,133.0,133.0,130.0,,1968,310,9.0,2495167550.0,-200.0,712.0,10003262.0,2018,Argaman,,Argaman,32.17334,35.522285
714,ארז,EREZ,6,61,614.0,37.0,,1.0,517.0,517.0,506.0,,1949,330,15.0,1588860773.0,30.0,651.0,10001829.0,2018,Erez,620.0,Erez,31.55984,34.564889
3570,אריאל,ARI'EL,7,73,,0.0,145.0,1.0,20456.0,19866.0,16191.0,590.0,1978,160,,2178666790.0,350.0,701.0,10003262.0,2018,Ari'el,,Ari'el,32.104637,35.174514
1324,ארסוף,ARSUF,4,41,411.0,19.0,141.0,1.0,166.0,166.0,147.0,,1995,350,,1828768007.0,28.0,401.0,15000060.0,2018,Arsuf,,Arsuf,32.212841,34.815977000000004
71,אשבול,ESHBOL,6,62,621.0,42.0,,1.0,635.0,635.0,631.0,,1955,310,1.0,1683959504.0,158.0,651.0,10001930.0,2018,Eshbol,620.0,Eshbol,31.445515999999998,34.666654
1276,אשבל,ESHBAL,2,24,241.0,56.0,241.0,1.0,125.0,124.0,120.0,1.0,1979,330,10.0,2288975354.0,245.0,205.0,10004513.0,2018,Eshbal,210.0,Eshbal,32.876984,35.30601
70,אשדוד,ASHDOD,6,61,613.0,0.0,143.0,1.0,224628.0,224328.0,201388.0,300.0,1955,130,,1668963375.0,-14.0,603.0,10001836.0,2018,Ashdod,,Ashdod,31.804381,34.655314000000004
199,אשדות יעקב (איחוד),ASHDOT YA'AQOV(IHUD),2,22,221.0,6.0,,1.0,981.0,978.0,950.0,3.0,1933,330,15.0,2547172936.0,-206.0,214.0,10004552.0,2018,Ashdot Ya'aqov(Ihud),214.0,Ashdot Ya'aqov(Ihud),32.658770000000004,35.579637
188,אשדות יעקב (מאוחד),ASHDOT YA'AQOV(ME'UHAD),2,22,221.0,6.0,,1.0,513.0,509.0,476.0,4.0,1933,330,15.0,2549172982.0,-200.0,214.0,10004552.0,2018,Ashdot Ya'aqov(Me'uhad),214.0,Ashdot Ya'aqov(Me'uhad),32.664808,35.582769
1188,אשחר,ESHHAR,2,24,241.0,56.0,241.0,1.0,918.0,917.0,908.0,1.0,1986,370,13.0,2284175455.0,334.0,205.0,10004513.0,2018,Eshhar,210.0,Eshhar,32.885084,35.299622
3722,אשכולות,ESHKOLOT,7,77,,78.0,,1.0,567.0,567.0,563.0,,1982,370,11.0,1909858882.0,498.0,715.0,15003512.0,2018,Eshkolot,,Eshkolot,31.391171000000003,34.904856
2021,אשל הנשיא,ESHEL HANASI,6,62,622.0,42.0,344.0,1.0,355.0,355.0,342.0,,1952,340,,1711958167.0,180.0,651.0,10001893.0,2018,Eshel HaNasi,620.0,Eshel HaNasi,31.326828000000003,34.697497
1152,אשלים,ASHALIM,6,62,626.0,48.0,,1.0,550.0,548.0,525.0,2.0,1976,370,19.0,1713254166.0,320.0,620.0,10001918.0,2018,Ashalim,610.0,Ashalim,30.964245000000002,34.699674
7100,אשקלון,ASHQELON,6,61,614.0,0.0,,1.0,140968.0,140648.0,122393.0,320.0,1948,140,,1596761983.0,-3.0,604.0,10001805.0,2018,Ashqelon,,Ashqelon,31.6687885,34.5742523
1256,אשרת,ASHERAT,2,24,245.0,4.0,,1.0,549.0,548.0,536.0,1.0,1983,370,13.0,2148876406.0,30.0,201.0,10004302.0,2018,Asherat,212.0,Asherat,32.971645,35.1557
740,אשתאול,ESHTA'OL,1,11,112.0,26.0,444.0,1.0,1252.0,1252.0,1226.0,,1949,310,1.0,2009563206.0,241.0,151.0,15000597.0,2018,Eshta'ol,,Eshta'ol,31.780385,35.010102
6000,באקה אל-גרביה,BAQA AL-GHARBIYYE,3,32,324.0,0.0,,2.0,29393.0,30.0,13.0,29363.0,,260,,2041570285.0,40.0,354.0,15002436.0,2018,Baqa Al-Gharbiyye,,Baqa Al-Gharbiyye,32.422891,35.035764
21,באר אורה,BE'ER ORA,6,62,625.0,53.0,,1.0,965.0,937.0,866.0,28.0,1950,370,19.0,1983840251.0,99.0,608.0,10001955.0,2018,Be'er Ora,,Be'er Ora,29.710165999999997,34.987218
1376,באר גנים,BE'ER GANNIM,6,61,614.0,36.0,,1.0,1295.0,1295.0,1292.0,,2012,370,,1629762325.0,28.0,633.0,10001805.0,2018,Be'er Gannim,,Be'er Gannim,31.700353999999997,34.610934
155,באר טוביה,BE'ER TOVIYYA,6,61,611.0,33.0,143.0,1.0,1214.0,1214.0,1197.0,,1930,310,1.0,1738362694.0,40.0,616.0,10001821.0,2018,Be'er Toviyya,420.0,Be'er Toviyya,31.737127,34.725570000000005
2530,באר יעקב,BE'ER YA'AQOV,4,43,432.0,99.0,133.0,1.0,26122.0,26004.0,25133.0,118.0,1907,160,,1849465002.0,49.0,455.0,10002228.0,2018,Be'er Ya'aqov,,Be'er Ya'aqov,31.943507,34.839040000000004
1278,באר מילכה,BE'ER MILKA,6,62,626.0,48.0,,1.0,189.0,189.0,189.0,,2006,310,1.0,1432753827.0,197.0,620.0,10001918.0,2018,Be'er Milka,610.0,Be'er Milka,30.934112,34.405643
9000,באר שבע,BE'ER SHEVA,6,62,623.0,0.0,310.0,1.0,209002.0,203622.0,181644.0,5380.0,1948,130,,1796357355.0,196.0,605.0,10001900.0,2018,Be'er Sheva,,Be'er Sheva,31.252972999999997,34.791462
450,בארות יצחק,BE'EROT YIZHAQ,4,42,422.0,25.0,142.0,1.0,420.0,420.0,417.0,,1948,330,3.0,1916866088.0,49.0,424.0,10002116.0,2018,Be'erot Yizhaq,,Be'erot Yizhaq,32.042025,34.910221
697,בארותיים,BE'EROTAYIM,4,41,412.0,16.0,141.0,1.0,1154.0,1154.0,1139.0,,1949,310,1.0,1986369200.0,27.0,409.0,15000060.0,2018,Be'erotayim,,Be'erotayim,32.321039,34.98343
399,בארי,BE'ERI,6,62,622.0,38.0,,1.0,1037.0,1037.0,990.0,,1946,330,15.0,1516259265.0,80.0,651.0,10001893.0,2018,Be'eri,620.0,Be'eri,31.424513,34.492567
559,בוסתן הגליל,BUSTAN HAGALIL,2,24,246.0,4.0,241.0,1.0,1305.0,1302.0,1265.0,3.0,1948,310,10.0,2080476169.0,-2.0,201.0,10004315.0,2018,Bustan HaGalil,212.0,Bustan HaGalil,32.948636,35.080688
482,בועיינה-נוג'ידאת,BU'EINE-NUJEIDAT,2,25,237.0,99.0,,2.0,9645.0,14.0,4.0,9631.0,,280,,2348174591.0,150.0,251.0,10004552.0,2018,Bu'eine-Nujeidat,214.0,Bu'eine-Nujeidat,32.807711,35.36527
4001,בוקעאתא,BUQ'ATA,2,29,292.0,99.0,,2.0,6528.0,,,6528.0,,280,,2730078971.0,990.0,256.0,10004579.0,2018,Buq'ata,211.0,Buq'ata,33.2026572,35.7767723
698,בורגתה,BURGETA,4,41,411.0,16.0,141.0,1.0,1120.0,1119.0,1112.0,1.0,1949,310,1.0,1966969241.0,27.0,409.0,15000060.0,2018,Burgeta,,Burgeta,32.325972,34.963848
2043,בחן,BAHAN,4,41,412.0,16.0,141.0,1.0,1054.0,1049.0,1025.0,5.0,1953,330,15.0,2019669523.0,50.0,409.0,10002155.0,2018,Bahan,,Bahan,32.351831,35.018542
762,בטחה,BITHA,6,62,622.0,42.0,344.0,1.0,789.0,787.0,781.0,2.0,1950,310,1.0,1650258264.0,108.0,651.0,10001893.0,2018,Bitha,620.0,Bitha,31.333869,34.634318
234,ביצרון,BIZZARON,6,61,611.0,33.0,143.0,1.0,1267.0,1267.0,1260.0,,1935,310,1.0,1744563381.0,40.0,616.0,10001821.0,2018,Bizzaron,420.0,Bizzaron,31.7949517,34.729346299999996
998,ביר אל-מכסור,BIR EL-MAKSUR,2,24,241.0,99.0,241.0,2.0,9317.0,6.0,,9311.0,,280,,2211374310.0,170.0,261.0,10004497.0,2018,Bir El-Maksur,310.0,Bir El-Maksur,32.777291,35.220571
1348,ביר הדאג',BIR HADAGE,6,62,626.0,68.0,,2.0,5735.0,16.0,14.0,5719.0,,280,,1714554846.0,260.0,624.0,10001918.0,2018,Bir Hadage,610.0,Bir Hadage,31.023159999999997,34.709138
368,בירייה,BIRIYYA,2,21,212.0,2.0,,1.0,843.0,843.0,840.0,,1945,350,,2471076480.0,751.0,209.0,10004528.0,2018,Biriyya,211.0,Biriyya,32.978108,35.503096
317,בית אורן,BET OREN,3,32,322.0,15.0,223.0,1.0,467.0,454.0,442.0,13.0,1939,330,15.0,2008573740.0,338.0,303.0,10004171.0,2018,Bet Oren,,Bet Oren,32.731601,35.00632
3574,בית אל,BET EL,7,74,,99.0,445.0,1.0,6042.0,6042.0,6027.0,,1977,180,,2212164987.0,799.0,711.0,10003299.0,2018,Bet El,,Bet El,31.9416,35.222734
562,בית אלעזרי,BET EL'AZARI,4,44,441.0,28.0,143.0,1.0,1563.0,1563.0,1553.0,,1948,310,1.0,1814663909.0,40.0,456.0,15002488.0,2018,Bet El'azari,420.0,Bet El'azari,31.844717,34.806627
95,בית אלפא,BET ALFA,2,23,232.0,8.0,,1.0,692.0,690.0,646.0,2.0,1922,330,15.0,2407871368.0,-93.0,204.0,10004568.0,2018,Bet Alfa,213.0,Bet Alfa,32.516357,35.430499
3652,בית אריה,BET ARYE,7,74,,99.0,145.0,1.0,5139.0,5139.0,4983.0,,1981,180,,2048666000.0,160.0,719.0,10004054.0,2018,Bet Arye,,Bet Arye,32.040059,35.049471999999994
1076,בית ברל,BET BERL,4,42,421.0,20.0,141.0,1.0,208.0,160.0,147.0,48.0,1947,340,,1932267865.0,60.0,417.0,10002133.0,2018,Bet Berl,,Bet Berl,32.1997359,34.926073200000005
480,בית ג'ן,BEIT JANN,2,24,243.0,99.0,,2.0,11864.0,1.0,,11863.0,,270,,2357076326.0,730.0,258.0,10004465.0,2018,Beit Jann,212.0,Beit Jann,32.965655,35.381268
619,בית גוברין,BET GUVRIN,6,61,612.0,35.0,,1.0,426.0,426.0,422.0,,1949,330,15.0,1901861345.0,240.0,632.0,10001813.0,2018,Bet Guvrin,420.0,Bet Guvrin,31.61288,34.895568
571,בית גמליאל,BET GAMLI'EL,4,44,441.0,29.0,143.0,1.0,1019.0,1013.0,1013.0,6.0,1949,310,2.0,1775164051.0,23.0,456.0,15002488.0,2018,Bet Gamli'el,420.0,Bet Gamli'el,31.856128000000002,34.760946999999994
466,בית דגן,BET DAGAN,4,43,432.0,99.0,133.0,1.0,7211.0,7203.0,7091.0,8.0,1948,180,,1840765643.0,27.0,455.0,10002207.0,2018,Bet Dagan,,Bet Dagan,32.0017816,34.829708700000005
723,בית הגדי,BET HAGADDI,6,62,621.0,39.0,,1.0,839.0,839.0,839.0,,1949,310,2.0,1626059275.0,130.0,651.0,10001930.0,2018,Bet HaGaddi,620.0,Bet HaGaddi,31.422839,34.607878
373,בית הלוי,BET HALEWI,4,41,411.0,16.0,141.0,1.0,803.0,803.0,802.0,,1945,310,1.0,1937569557.0,9.0,409.0,15000060.0,2018,Bet HaLewi,,Bet HaLewi,32.351596,34.930443
322,בית הלל,BET HILLEL,2,21,211.0,55.0,,1.0,791.0,790.0,778.0,1.0,1940,310,1.0,2568779040.0,80.0,253.0,10004591.0,2018,Bet Hillel,211.0,Bet Hillel,33.208782,35.606515
572,בית העמק,BET HAEMEQ,2,24,245.0,4.0,,1.0,553.0,553.0,519.0,,1949,330,15.0,2139376350.0,25.0,201.0,10004302.0,2018,Bet HaEmeq,212.0,Bet HaEmeq,32.971014000000004,35.145305
3645,בית הערבה,BET HAARAVA,7,75,,74.0,,1.0,290.0,290.0,285.0,,1980,330,15.0,2452263505.0,-340.0,713.0,10003314.0,2018,Bet HaArava,,Bet HaArava,31.807762,35.476411
242,בית השיטה,BET HASHITTA,2,23,232.0,8.0,,1.0,1264.0,1263.0,1214.0,1.0,1935,330,15.0,2414771748.0,-81.0,204.0,10004568.0,2018,Bet HaShitta,213.0,Bet HaShitta,32.550874,35.439351
353,בית זיד,BET ZEID,2,23,235.0,9.0,,1.0,79.0,79.0,76.0,,1943,350,,2110773411.0,70.0,254.0,10004207.0,2018,Bet Zeid,213.0,Bet Zeid,32.70221,35.131599
710,בית זית,BET ZAYIT,1,11,111.0,26.0,444.0,1.0,1678.0,1678.0,1643.0,,1949,310,1.0,2154163215.0,540.0,151.0,10002475.0,2018,Bet Zayit,,Bet Zayit,31.783058,35.161117
143,בית זרע,BET ZERA,2,22,221.0,6.0,,1.0,590.0,590.0,564.0,,1926,330,15.0,2540573277.0,-220.0,214.0,10004552.0,2018,Bet Zera,214.0,Bet Zera,32.689296,35.574062
3575,בית חורון,BET HORON,7,74,,73.0,445.0,1.0,1362.0,1362.0,1361.0,,1977,370,11.0,2121064280.0,601.0,711.0,10004054.0,2018,Bet Horon,,Bet Horon,31.879890000000003,35.124097
877,בית חירות,BET HERUT,4,41,411.0,16.0,141.0,1.0,904.0,904.0,892.0,,1933,320,1.0,1878069842.0,11.0,409.0,15000060.0,2018,Bet Herut,,Bet Herut,32.376222999999996,34.873765
2033,בית חלקיה,BET HILQIYYA,4,44,441.0,31.0,143.0,1.0,1221.0,1221.0,1221.0,,1953,310,8.0,1822563335.0,60.0,456.0,15002488.0,2018,Bet Hilqiyya,420.0,Bet Hilqiyya,31.793001,34.809698
159,בית חנן,BET HANAN,4,44,442.0,27.0,143.0,1.0,548.0,547.0,544.0,1.0,1930,310,1.0,1786964903.0,28.0,456.0,15002488.0,2018,Bet Hanan,,Bet Hanan,31.935211,34.775596
800,בית חנניה,BET HANANYA,3,32,324.0,15.0,,1.0,912.0,912.0,888.0,,1950,310,1.0,1932871493.0,10.0,303.0,10004333.0,2018,Bet Hananya,,Bet Hananya,32.529503999999996,34.926734
1050,בית חשמונאי,BET HASHMONAY,4,43,432.0,30.0,143.0,1.0,2190.0,2190.0,2181.0,,1972,190,,1924564399.0,90.0,426.0,10002228.0,2018,Bet Hashmonay,,Bet Hashmonay,31.890297999999998,34.917598999999996
288,בית יהושע,BET YEHOSHUA,4,41,411.0,19.0,141.0,1.0,1054.0,1054.0,1041.0,,1938,310,6.0,1875268523.0,11.0,401.0,15000060.0,2018,Bet Yehoshua,,Bet Yehoshua,32.262075,34.865418
265,בית יוסף,BET YOSEF,2,23,231.0,7.0,,1.0,460.0,460.0,457.0,,1937,310,1.0,2520671839.0,-242.0,202.0,10004568.0,2018,Bet Yosef,214.0,Bet Yosef,32.558698,35.552772999999995
200,בית ינאי,BET YANNAY,4,41,411.0,16.0,141.0,1.0,387.0,387.0,386.0,,1933,310,10.0,1873769865.0,10.0,409.0,15000060.0,2018,Bet Yannay,,Bet Yannay,32.381729,34.863507
326,בית יצחק-שער חפר,BET YIZHAQ-SH. HEFER,4,41,411.0,16.0,141.0,1.0,2079.0,2079.0,2048.0,,1940,191,,1899269340.0,12.0,409.0,15000060.0,2018,Bet Yizhaq-Sh. Hefer,,Bet Yizhaq-Sh. Hefer,32.33558,34.8895
430,בית לחם הגלילית,BET LEHEM HAGELILIT,2,23,237.0,9.0,242.0,1.0,825.0,824.0,809.0,1.0,1948,310,1.0,2181773782.0,122.0,254.0,10004411.0,2018,Bet Lehem HaGelilit,213.0,Bet Lehem HaGelilit,32.734558,35.191271
751,בית מאיר,BET ME'IR,1,11,111.0,26.0,444.0,1.0,874.0,874.0,872.0,,1950,310,2.0,2035763349.0,519.0,151.0,15000597.0,2018,Bet Me'ir,,Bet Me'ir,31.794786,35.036753000000004
784,בית נחמיה,BET NEHEMYA,4,43,432.0,25.0,142.0,1.0,871.0,871.0,862.0,,1950,310,6.0,1958765375.0,69.0,424.0,10002168.0,2018,Bet Nehemya,,Bet Nehemya,31.977141999999997,34.953835
16,בית ניר,BET NIR,6,61,612.0,35.0,,1.0,612.0,612.0,599.0,,1955,330,15.0,1880461729.0,230.0,632.0,10001813.0,2018,Bet Nir,420.0,Bet Nir,31.647627000000004,34.873107
672,בית נקופה,BET NEQOFA,1,11,111.0,26.0,444.0,1.0,723.0,717.0,699.0,6.0,1949,310,1.0,2120263464.0,621.0,151.0,10002475.0,2018,Bet Neqofa,,Bet Neqofa,31.804392,35.126876
202,בית עובד,BET OVED,4,44,442.0,27.0,143.0,1.0,253.0,253.0,253.0,,1933,310,1.0,1787064773.0,20.0,456.0,15002488.0,2018,Bet Oved,,Bet Oved,31.921287,34.774905
301,בית עוזיאל,BET UZZI'EL,4,43,432.0,30.0,143.0,1.0,645.0,645.0,636.0,,1956,310,2.0,1911464200.0,120.0,426.0,10002228.0,2018,Bet Uzzi'el,,Bet Uzzi'el,31.87005,34.904858000000004
756,בית עזרא,BET EZRA,6,61,611.0,33.0,143.0,1.0,1137.0,1136.0,1110.0,1.0,1950,310,1.0,1674262732.0,37.0,616.0,10001821.0,2018,Bet Ezra,420.0,Bet Ezra,31.736402000000002,34.657514
604,בית עריף,BET ARIF,4,43,432.0,25.0,142.0,1.0,1156.0,1155.0,1142.0,1.0,1951,310,1.0,1939465589.0,50.0,424.0,10002168.0,2018,Bet Arif,,Bet Arif,31.995352,34.935103000000005
212,בית צבי,BET ZEVI,3,32,321.0,15.0,223.0,1.0,345.0,345.0,345.0,,1953,340,,1974573615.0,28.0,303.0,10004333.0,2018,Bet Zevi,,Bet Zevi,32.7215394,34.9688805
598,בית קמה,BET QAMA,6,62,621.0,41.0,341.0,1.0,1396.0,1396.0,1386.0,,1949,330,15.0,1773459523.0,230.0,625.0,10001946.0,2018,Bet Qama,620.0,Bet Qama,31.446565999999997,34.762248
365,בית קשת,BET QESHET,2,22,222.0,3.0,,1.0,706.0,706.0,691.0,,1944,330,15.0,2372073606.0,144.0,206.0,10004552.0,2018,Bet Qeshet,214.0,Bet Qeshet,32.718446,35.394952
848,בית רבן,BET RABBAN,4,44,441.0,29.0,143.0,1.0,979.0,979.0,963.0,,1946,340,,1744963615.0,49.0,456.0,10001821.0,2018,Bet Rabban,420.0,Bet Rabban,31.817496999999996,34.7289
1162,בית רימון,BET RIMMON,2,23,237.0,3.0,,1.0,789.0,789.0,789.0,,1977,330,3.0,2310474304.0,367.0,206.0,15002369.0,2018,Bet Rimmon,214.0,Bet Rimmon,32.781845000000004,35.327738000000004
9200,בית שאן,BET SHE'AN,2,23,231.0,0.0,,1.0,18227.0,18081.0,17757.0,146.0,1948,170,,2469671125.0,-200.0,203.0,10004568.0,2018,Bet She'an,214.0,Bet She'an,32.497103,35.497336
2610,בית שמש,BET SHEMESH,1,11,112.0,0.0,444.0,1.0,118676.0,118549.0,116553.0,127.0,1950,140,,1990162679.0,160.0,102.0,10002507.0,2018,Bet Shemesh,,Bet Shemesh,31.747040999999996,34.988099
248,בית שערים,BET SHE'ARIM,2,23,235.0,9.0,,1.0,744.0,744.0,739.0,,1936,310,1.0,2169973357.0,51.0,254.0,10004411.0,2018,Bet She'arim,213.0,Bet She'arim,32.703757,35.129933
747,בית שקמה,BET SHIQMA,6,61,614.0,36.0,,1.0,873.0,869.0,845.0,4.0,1950,310,1.0,1628461632.0,46.0,633.0,10001829.0,2018,Bet Shiqma,,Bet Shiqma,31.637735,34.610074
252,ביתן אהרן,BITAN AHARON,4,41,411.0,16.0,141.0,1.0,122.0,122.0,117.0,,1936,310,10.0,1879969688.0,20.0,409.0,15000060.0,2018,Bitan Aharon,,Bitan Aharon,32.364928000000006,34.86956
3780,ביתר עילית,BETAR ILLIT,7,76,,0.0,445.0,1.0,56746.0,56744.0,56726.0,2.0,1985,150,,2107362248.0,568.0,716.0,15000586.0,2018,Betar Illit,,Betar Illit,31.7010023,35.1119254
94,בלפוריה,BALFURYA,2,23,234.0,9.0,,1.0,512.0,512.0,505.0,,1922,310,1.0,2280872620.0,70.0,254.0,10004394.0,2018,Balfurya,213.0,Balfurya,32.629988,35.296281
760,בן זכאי,BEN ZAKKAY,4,44,441.0,29.0,143.0,1.0,1115.0,1115.0,1094.0,,1950,310,2.0,1744464050.0,26.0,456.0,15002488.0,2018,Ben Zakkay,420.0,Ben Zakkay,31.857222999999998,34.727432
712,בן עמי,BEN AMMI,2,24,245.0,4.0,,1.0,775.0,773.0,749.0,2.0,1949,310,1.0,2119076783.0,15.0,201.0,10004302.0,2018,Ben Ammi,212.0,Ben Ammi,33.005369,35.122218
1084,בן שמן (כפר נוער),BEN SHEMEN(K.NO'AR),4,43,432.0,25.0,142.0,1.0,617.0,615.0,567.0,2.0,1921,340,,1932665185.0,61.0,424.0,10002261.0,2018,Ben Shemen(K.No'ar),,Ben Shemen(K.No'ar),31.959019,34.927831
2013,בן שמן (מושב),BEN SHEMEN (MOSHAV),4,43,432.0,25.0,142.0,1.0,865.0,865.0,852.0,,1952,310,1.0,1928365110.0,55.0,424.0,10002261.0,2018,Ben Shemen (Moshav),,Ben Shemen (Moshav),31.958896000000003,34.934104
6100,בני ברק,BENE BERAQ,5,52,512.0,0.0,122.0,1.0,198863.0,198799.0,197439.0,64.0,1924,140,,1845566599.0,2.0,501.0,10001473.0,2018,Bene Beraq,,Bene Beraq,32.084932,34.835226
1368,בני דקלים,BNE DEQALIM,6,61,612.0,50.0,,1.0,1016.0,1016.0,1015.0,,2009,370,11.0,1924560284.0,359.0,634.0,10001813.0,2018,Bne Dkalim,,Bne Dkalim,31.517188,34.917033
592,בני דרום,BENE DAROM,4,44,441.0,29.0,143.0,1.0,847.0,846.0,845.0,1.0,1949,320,2.0,1708963652.0,20.0,456.0,10001836.0,2018,Bene Darom,420.0,Bene Darom,31.820870000000003,34.691609
386,בני דרור,BENE DEROR,4,41,411.0,18.0,141.0,1.0,1221.0,1221.0,1213.0,,1946,320,1.0,1907168542.0,18.0,412.0,15000060.0,2018,Bene Deror,,Bene Deror,32.261795,34.901790999999996
4015,בני יהודה,BENE YEHUDA,2,29,294.0,71.0,,1.0,1070.0,1070.0,966.0,,1972,370,13.0,2648874494.0,327.0,219.0,10004579.0,2018,Bene Yehuda,211.0,Bene Yehuda,32.798262,35.69107
1363,בני נצרים,BNE NETSARIM,6,62,622.0,38.0,,1.0,728.0,728.0,728.0,,2010,310,11.0,1346156141.0,90.0,651.0,10001893.0,2018,Bne Netsarim,620.0,Bne Netsarim,31.143513000000002,34.316403
448,בני עטרות,BENE ATAROT,4,42,422.0,25.0,142.0,1.0,975.0,975.0,969.0,,1948,310,1.0,1920265901.0,44.0,424.0,10002116.0,2018,Bene Atarot,,Bene Atarot,32.02147,34.910146000000005
1066,"בני עי""ש",BENE AYISH,4,44,441.0,99.0,143.0,1.0,7017.0,6968.0,5640.0,49.0,1958,180,,1774163306.0,62.0,453.0,10001821.0,2018,Bene Ayish,420.0,Bene Ayish,31.790235,34.759291
418,בני ציון,BENE ZIYYON,4,41,411.0,19.0,141.0,1.0,1365.0,1360.0,1337.0,5.0,1947,310,10.0,1877968066.0,20.0,401.0,15000060.0,2018,Bene Ziyyon,,Bene Ziyyon,32.219514000000004,34.868538
588,בני ראם,BENE RE'EM,4,44,441.0,31.0,143.0,1.0,1387.0,1374.0,1371.0,13.0,1949,310,8.0,1803363099.0,58.0,456.0,15002488.0,2018,Bene Re'em,420.0,Bene Re'em,31.769971999999996,34.790463
685,בניה,BENAYA,4,44,441.0,28.0,143.0,1.0,808.0,808.0,807.0,,1949,310,1.0,1767263908.0,30.0,456.0,15002488.0,2018,Benaya,420.0,Benaya,31.843444,34.751793
9800,בנימינה-גבעת עדה*,BINYAMINA-GIV'AT ADA,3,32,324.0,99.0,,1.0,15627.0,15598.0,15081.0,29.0,1903,170,,1967571417.0,10.0,353.0,10004333.0,2018,Binyamina-Giv'at Ada,,Binyamina-Giv'at Ada,32.517078000000005,34.955096000000005
1326,"בסמ""ה",BASMA,3,32,323.0,99.0,,2.0,9779.0,3.0,,9776.0,,280,,2100771513.0,137.0,354.0,10004233.0,2018,Basma,,Basma,32.529401,35.103199
944,בסמת טבעון,BASMAT TAB'UN,2,23,237.0,99.0,242.0,2.0,7835.0,19.0,14.0,7816.0,,280,,2148073835.0,118.0,257.0,10004207.0,2018,Basmat Tab'un,,Basmat Tab'un,32.736287,35.1532
483,בענה,BI'NE,2,24,242.0,99.0,,2.0,8299.0,13.0,4.0,8286.0,,280,,2258875935.0,220.0,260.0,15002358.0,2018,Bi'ne,210.0,Bi'ne,32.929538,35.271916999999995
389,בצרה,BAZRA,4,41,411.0,19.0,141.0,1.0,1217.0,1217.0,1183.0,,1946,310,10.0,1886968001.0,20.0,401.0,15000060.0,2018,Bazra,,Bazra,32.214541,34.878122999999995
589,בצת,BEZET,2,24,245.0,4.0,,1.0,279.0,272.0,266.0,7.0,1949,310,1.0,2129677511.0,16.0,201.0,10004302.0,2018,Bezet,212.0,Bezet,33.070046999999995,35.132636
864,בקוע,BEQOA,1,11,112.0,26.0,,1.0,752.0,749.0,730.0,3.0,1951,310,1.0,1930663736.0,129.0,151.0,15000597.0,2018,Beqoa,,Beqoa,31.827899,34.924732
3612,בקעות,BEQA'OT,7,75,,75.0,,1.0,176.0,176.0,173.0,,1972,310,10.0,2428968327.0,40.0,712.0,10003262.0,2018,Beqa'ot,,Beqa'ot,32.24207,35.452636
823,בר גיורא,BAR GIYYORA,1,11,111.0,26.0,444.0,1.0,672.0,669.0,660.0,3.0,1950,310,9.0,2069462636.0,663.0,151.0,15000597.0,2018,Bar Giyyora,,Bar Giyyora,31.729683,35.073414
1191,בר יוחאי,BAR YOHAY,2,21,212.0,2.0,,1.0,1062.0,1062.0,1062.0,,1979,370,2.0,2422976699.0,700.0,209.0,10004528.0,2018,Bar Yohay,211.0,Bar Yohay,32.997704,35.448190000000004
3744,ברוכין,BRUKHIN,7,73,,72.0,,1.0,1093.0,1093.0,1076.0,,2012,370,2.0,2086566533.0,336.0,710.0,10003262.0,2018,Brukhin,,Brukhin,32.082231,35.094113
428,ברור חיל,BEROR HAYIL,6,61,614.0,37.0,,1.0,986.0,978.0,957.0,8.0,1948,330,15.0,1665260743.0,59.0,651.0,10001829.0,2018,Beror Hayil,620.0,Beror Hayil,31.556984999999997,34.646547
2060,ברוש,BEROSH,6,62,621.0,41.0,344.0,1.0,538.0,538.0,536.0,,1953,310,1.0,1650558666.0,112.0,625.0,10001893.0,2018,Berosh,620.0,Berosh,31.370721000000003,34.634978000000004
3710,ברכה,BERAKHA,7,72,,72.0,,1.0,2620.0,2613.0,2215.0,7.0,1983,190,,2251867768.0,798.0,710.0,10003262.0,2018,Berakha,,Berakha,32.049357,34.758355
746,ברכיה,BEREKHYA,6,61,614.0,36.0,,1.0,1273.0,1273.0,1273.0,,1950,310,1.0,1645461979.0,39.0,633.0,10001821.0,2018,Berekhya,,Berekhya,31.668046999999998,34.624296
667,ברעם,BAR'AM,2,24,244.0,1.0,,1.0,590.0,590.0,527.0,,1949,330,15.0,2408677373.0,671.0,253.0,10004528.0,2018,Bar'am,211.0,Bar'am,33.058979,35.433234999999996
141,ברק,BARAQ,2,23,234.0,8.0,,1.0,410.0,410.0,408.0,,1956,310,1.0,2251371651.0,70.0,204.0,10004394.0,2018,Baraq,213.0,Baraq,30.400899,35.113896000000004
617,ברקאי,BARQAY,3,32,324.0,14.0,,1.0,542.0,541.0,511.0,1.0,1949,330,15.0,2029770901.0,50.0,351.0,15002436.0,2018,Barqay,,Barqay,32.476096000000005,35.031044
3654,ברקן,BARQAN,7,73,,72.0,145.0,1.0,1833.0,1830.0,1711.0,3.0,1981,370,9.0,2101566821.0,368.0,710.0,10003262.0,2018,Barqan,,Barqan,32.109487,35.106008
2038,ברקת,BAREQET,4,42,422.0,25.0,142.0,1.0,2035.0,2035.0,2030.0,,1952,191,,1948865814.0,60.0,424.0,10002168.0,2018,Bareqet,,Bareqet,32.018344,34.943179
1323,בת הדר,BAT HADAR,6,61,614.0,36.0,,1.0,763.0,763.0,749.0,,1995,350,,1618161736.0,55.0,633.0,10001829.0,2018,Bat Hadar,,Bat Hadar,31.648125,34.597146
1361,בת חן,BAT HEN,4,41,411.0,16.0,141.0,1.0,411.0,411.0,397.0,,1967,350,,1881869630.0,21.0,409.0,15000060.0,2018,Bat Hen,,Bat Hen,32.360194,34.872388
1319,בת חפר,BAT HEFER,4,41,412.0,16.0,141.0,1.0,5342.0,5340.0,5259.0,2.0,1996,180,,2014969329.0,50.0,409.0,10002155.0,2018,Bat Hefer,,Bat Hefer,32.333714,35.013729
6200,בת ים,BAT YAM,5,53,513.0,0.0,123.0,1.0,128774.0,127991.0,102268.0,783.0,1926,140,,1765265859.0,1.0,502.0,10001430.0,2018,Bat Yam,,Bat Yam,32.013186,34.748019
3794,בת עין,BAT AYIN,7,76,,76.0,445.0,1.0,1545.0,1543.0,1538.0,2.0,1989,370,11.0,2096361842.0,627.0,714.0,15000586.0,2018,Bat Ayin,,Bat Ayin,31.657653000000003,35.101101
33,בת שלמה,BAT SHELOMO,3,32,322.0,15.0,243.0,1.0,651.0,651.0,635.0,,1889,310,7.0,2005972291.0,59.0,303.0,10004333.0,2018,Bat Shelomo,,Bat Shelomo,32.600335,35.003837
1292,ג'דיידה-מכר,JUDEIDE-MAKER,2,24,246.0,99.0,241.0,2.0,20920.0,29.0,16.0,20891.0,,260,,2140675939.0,10.0,252.0,10004315.0,2018,Judeide-Maker,,Judeide-Maker,32.928656,35.150573
485,ג'ולס,JULIS,2,24,243.0,99.0,,2.0,6375.0,,,6375.0,,280,,2174976079.0,43.0,252.0,10004315.0,2018,Julis,,Julis,32.94498,35.184243
627,ג'לג'וליה,JALJULYE,4,42,421.0,99.0,142.0,2.0,9984.0,162.0,133.0,9822.0,,280,,1957367322.0,26.0,451.0,15000658.0,2018,Jaljulye,,Jaljulye,32.1524568,34.9539749
976,ג'נאביב (שבט),JUNNABIB,6,62,623.0,,,3.0,,,,,,460,,2030056900.0,0.0,699.0,15003711.0,2018,Janabib,,Janabib,31.287156,35.108132
541,ג'סר א-זרקא,JISR AZ-ZARQA,3,32,324.0,99.0,,2.0,14692.0,15.0,,14677.0,,270,,1919771586.0,0.0,353.0,10004333.0,2018,Jisr Az-Zarqa,,Jisr Az-Zarqa,32.536262,34.911569
487,ג'ש (גוש חלב),JISH(GUSH HALAV),2,21,212.0,99.0,,2.0,3090.0,7.0,6.0,3083.0,,290,,2420276976.0,589.0,258.0,10004528.0,2018,Jish(Gush Halav),211.0,Jish(Gush Halav),33.021266,35.447949
628,ג'ת,JATT,3,32,324.0,99.0,,2.0,11798.0,8.0,3.0,11790.0,,270,,2036070063.0,31.0,354.0,15002436.0,2018,Jatt,,Jatt,32.39693,35.035914
872,גאולי תימן,GE'ULE TEMAN,4,41,411.0,16.0,141.0,1.0,363.0,273.0,270.0,90.0,1947,310,2.0,1909769986.0,8.0,409.0,15000060.0,2018,Ge'ule Teman,,Ge'ule Teman,32.391837,34.900989
379,גאולים,GE'ULIM,4,41,411.0,18.0,141.0,1.0,954.0,954.0,934.0,,1945,310,1.0,1950268938.0,41.0,412.0,15000060.0,2018,Ge'ulim,,Ge'ulim,32.296487,34.943862
853,גאליה,GE'ALYA,4,44,442.0,27.0,143.0,1.0,990.0,990.0,976.0,,1948,310,1.0,1779264365.0,20.0,456.0,15002488.0,2018,Ge'alya,,Ge'alya,31.885644,34.765351
352,גבולות,GEVULOT,6,62,622.0,38.0,,1.0,344.0,344.0,291.0,,1943,330,15.0,1490356905.0,130.0,651.0,10001893.0,2018,Gevulot,620.0,Gevulot,31.211168,34.466198999999996
424,גבים,GEVIM,6,61,614.0,37.0,,1.0,623.0,621.0,604.0,2.0,1947,330,15.0,1618560187.0,104.0,651.0,10001829.0,2018,Gevim,620.0,Gevim,31.506272999999997,34.598949
86,גבע,GEVA,2,23,232.0,8.0,,1.0,628.0,628.0,612.0,,1921,330,15.0,2351971912.0,-7.0,204.0,10004394.0,2018,Geva,213.0,Geva,32.56653,35.37216
3763,גבע בנימין,GEVA BINYAMIN,7,74,,73.0,445.0,1.0,5525.0,5507.0,5371.0,18.0,1984,180,,2260763967.0,364.0,711.0,10003299.0,2018,Geva Binyamin,,Geva Binyamin,31.849999,35.273853
683,גבע כרמל,GEVA KARMEL,3,32,321.0,15.0,243.0,1.0,1196.0,1196.0,1182.0,,1949,310,1.0,1960272983.0,14.0,303.0,10004333.0,2018,Geva Karmel,,Geva Karmel,32.662163,34.954078
2014,גבעולים,GIV'OLIM,6,62,621.0,39.0,,1.0,384.0,384.0,384.0,,1952,310,2.0,1611658959.0,110.0,651.0,10001930.0,2018,Giv'olim,620.0,Giv'olim,31.397603999999998,34.593821000000005
3644,גבעון החדשה,GIV'ON HAHADASHA,7,74,,73.0,445.0,1.0,1086.0,1020.0,993.0,66.0,1980,370,11.0,2150863946.0,763.0,711.0,10002489.0,2018,Giv'on HaHadasha,,Giv'on HaHadasha,31.848896000000003,35.159029
1344,גבעות בר,GEVA'OT BAR,6,62,623.0,41.0,341.0,1.0,1143.0,1141.0,1124.0,2.0,2004,370,19.0,1768358505.0,219.0,625.0,10001946.0,2018,Geva'ot Bar,620.0,Geva'ot Bar,31.357209,34.755541
1293,גבעת אבני,GIV'AT AVNI,2,22,222.0,3.0,,1.0,1976.0,1976.0,1954.0,,1991,370,,2414274234.0,261.0,206.0,10004552.0,2018,Giv'at Avni,214.0,Giv'at Avni,32.775382,35.436153999999995
1288,גבעת אלה,GIV'AT ELA,2,23,237.0,9.0,,1.0,1973.0,1972.0,1956.0,1.0,1988,370,13.0,2232973632.0,211.0,254.0,10004411.0,2018,Giv'at Ela,213.0,Giv'at Ela,32.722007,35.244822
147,גבעת ברנר,GIV'AT BRENNER,4,44,441.0,28.0,143.0,1.0,2703.0,2703.0,2651.0,,1928,193,,1812764167.0,45.0,456.0,15002488.0,2018,Giv'at Brenner,420.0,Giv'at Brenner,31.866609999999998,34.802254
870,גבעת השלושה,GIV'AT HASHELOSHA,4,42,422.0,20.0,142.0,1.0,857.0,857.0,841.0,,1925,330,15.0,1927366719.0,24.0,417.0,10002116.0,2018,Giv'at HaShelosha,,Giv'at HaShelosha,32.096340000000005,34.920628
3730,גבעת זאב,GIV'AT ZE'EV,7,74,,99.0,445.0,1.0,17922.0,17895.0,17752.0,27.0,1983,170,,2159264036.0,550.0,705.0,10002489.0,2018,Giv'at Ze'ev,,Giv'at Ze'ev,31.861189000000003,35.167252000000005
207,"גבעת ח""ן",GIV'AT HEN,4,42,421.0,20.0,131.0,1.0,363.0,363.0,360.0,,1933,310,1.0,1883167498.0,50.0,417.0,10002133.0,2018,Giv'at Hen,,Giv'at Hen,32.16758,34.875514
2018,גבעת חיים (איחוד),GIV'AT HAYYIM (IHUD),4,41,411.0,16.0,141.0,1.0,1137.0,1137.0,1111.0,,1932,330,15.0,1938370064.0,20.0,409.0,15000060.0,2018,Giv'at Hayyim (Ihud),,Giv'at Hayyim (Ihud),32.396745,34.932978000000006
173,גבעת חיים (מאוחד),GIV'AT HAYYIM(ME'UHAD),4,41,411.0,16.0,141.0,1.0,1006.0,1006.0,981.0,,1932,330,15.0,1937069975.0,16.0,409.0,15000060.0,2018,Giv'at Hayyim(Me'uhad),,Giv'at Hayyim(Me'uhad),32.392148,34.929446999999996
4021,גבעת יואב,GIV'AT YO'AV,2,29,294.0,71.0,,1.0,703.0,702.0,678.0,1.0,1968,310,1.0,2641674503.0,294.0,219.0,10004579.0,2018,Giv'at Yo'av,211.0,Giv'at Yo'av,32.801217,35.680911
787,גבעת יערים,GIV'AT YE'ARIM,1,11,111.0,26.0,444.0,1.0,1461.0,1460.0,1434.0,1.0,1950,310,1.0,2088063269.0,657.0,151.0,15000597.0,2018,Giv'at Ye'arim,,Giv'at Ye'arim,31.786089,35.09277
919,גבעת ישעיהו,GIV'AT YESHA'YAHU,1,11,112.0,26.0,444.0,1.0,828.0,828.0,816.0,,1958,310,6.0,1948961988.0,260.0,151.0,15000597.0,2018,Giv'at Yesha'yahu,,Giv'at Yesha'yahu,31.67168,34.943738
802,"גבעת כ""ח",GIV'AT KOAH,4,42,422.0,25.0,142.0,1.0,923.0,923.0,903.0,,1950,310,1.0,1940765983.0,60.0,424.0,10002168.0,2018,Giv'at Koah,,Giv'at Koah,32.032090999999994,34.938796
360,"גבעת ניל""י",GIV'AT NILI,3,32,323.0,45.0,,1.0,726.0,726.0,724.0,,1953,310,9.0,2041471707.0,111.0,351.0,10004233.0,2018,Giv'at Nili,,Giv'at Nili,32.549043,35.041194
703,גבעת עוז,GIV'AT OZ,2,23,234.0,13.0,,1.0,474.0,473.0,449.0,1.0,1949,330,15.0,2189071785.0,100.0,254.0,10004249.0,2018,Giv'at Oz,213.0,Giv'at Oz,32.555934,35.198004
681,גבעת שמואל,GIV'AT SHEMU'EL,4,42,422.0,0.0,132.0,1.0,26023.0,25991.0,25658.0,32.0,1942,160,,1860166490.0,21.0,427.0,10001516.0,2018,Giv'at Shemu'el,,Giv'at Shemu'el,32.077299,34.849206
566,גבעת שמש,GIV'AT SHEMESH,1,11,112.0,26.0,444.0,1.0,63.0,57.0,53.0,6.0,1954,340,,1955163138.0,237.0,151.0,15000597.0,2018,Giv'at Shemesh,,Giv'at Shemesh,31.774189,34.95055
1077,גבעת שפירא,GIV'AT SHAPPIRA,4,41,411.0,16.0,141.0,1.0,408.0,408.0,406.0,,1958,310,10.0,1886069600.0,26.0,409.0,15000060.0,2018,Giv'at Shappira,,Giv'at Shappira,32.35763,34.875845
793,גבעתי,GIV'ATI,6,61,611.0,33.0,143.0,1.0,1022.0,1022.0,1007.0,,1950,310,1.0,1698062683.0,30.0,616.0,10001821.0,2018,Giv'ati,420.0,Giv'ati,31.733138,34.679478
6300,גבעתיים,GIV'ATAYIM,5,52,512.0,0.0,122.0,1.0,60212.0,60179.0,58228.0,33.0,1922,150,,1822066430.0,3.0,503.0,10001533.0,2018,Giv'atayim,,Giv'atayim,32.072176,34.808871
342,גברעם,GEVAR'AM,6,61,614.0,36.0,,1.0,470.0,470.0,450.0,,1942,330,15.0,1632461117.0,75.0,633.0,10001829.0,2018,Gevar'am,,Gevar'am,33.058979,35.433234999999996
133,גבת,GEVAT,2,23,234.0,9.0,,1.0,935.0,935.0,922.0,,1926,330,15.0,2202173114.0,65.0,254.0,10004411.0,2018,Gevat,213.0,Gevat,32.676559999999995,35.213151
35,גדות,GADOT,2,21,213.0,1.0,,1.0,441.0,441.0,390.0,,1949,330,15.0,2582276940.0,97.0,253.0,10004540.0,2018,Gadot,211.0,Gadot,33.018208,35.619547
145,גדיש,GADISH,2,23,234.0,8.0,,1.0,386.0,386.0,384.0,,1956,310,1.0,2232471829.0,64.0,204.0,10004394.0,2018,Gadish,213.0,Gadish,32.558844,35.24443
442,גדעונה,GID'ONA,2,23,232.0,8.0,,1.0,458.0,458.0,451.0,,1949,350,,2339371720.0,-23.0,204.0,10004394.0,2018,Gid'ona,213.0,Gid'ona,32.549927000000004,35.359202
2550,גדרה,GEDERA,4,44,441.0,99.0,143.0,1.0,28092.0,27974.0,27403.0,118.0,1884,160,,1792663560.0,30.0,431.0,15002488.0,2018,Gedera,420.0,Gedera,31.812301399999996,34.777019200000005
852,גונן,GONEN,2,21,211.0,1.0,,1.0,370.0,370.0,358.0,,1951,330,15.0,2607478109.0,69.0,253.0,10004591.0,2018,Gonen,211.0,Gonen,33.1240353,35.6461519
755,גורן,GOREN,2,24,244.0,52.0,,1.0,428.0,422.0,419.0,6.0,1950,310,1.0,2224377349.0,340.0,255.0,10004302.0,2018,Goren,212.0,Goren,33.055566,35.233619
1219,גורנות הגליל,GORNOT HAGALIL,2,24,244.0,52.0,,1.0,186.0,185.0,178.0,1.0,1980,350,,2236377386.0,340.0,255.0,10004302.0,2018,Gornot HaGalil,212.0,Gornot HaGalil,33.059286,35.24967
457,גזית,GAZIT,2,23,233.0,9.0,,1.0,725.0,725.0,691.0,,1948,330,15.0,2422172722.0,101.0,254.0,10004394.0,2018,Gazit,213.0,Gazit,32.639307,35.446239
370,גזר,GEZER,4,43,432.0,30.0,143.0,1.0,286.0,284.0,277.0,2.0,1945,330,15.0,1925264268.0,111.0,426.0,10002228.0,2018,Gezer,,Gezer,31.876348999999998,34.92111
706,גיאה,GE'A,6,61,614.0,36.0,,1.0,970.0,970.0,947.0,,1949,310,1.0,1624261519.0,48.0,633.0,10001829.0,2018,Ge'a,,Ge'a,31.628466999999997,34.602678000000004
196,גיבתון,GIBBETON,4,44,441.0,28.0,143.0,1.0,363.0,363.0,360.0,,1933,350,,1811964406.0,37.0,456.0,10002241.0,2018,Gibbeton,420.0,Gibbeton,31.888317999999998,34.79906
1043,גיזו,GIZO,1,11,112.0,26.0,,1.0,204.0,204.0,202.0,,1968,350,,1943163471.0,181.0,151.0,15000597.0,2018,Gizo,,Gizo,31.805584999999997,34.939653
1204,גילון,GILON,2,24,242.0,56.0,241.0,1.0,1029.0,1029.0,1004.0,,1980,370,9.0,2224475646.0,204.0,205.0,10004465.0,2018,Gilon,210.0,Gilon,32.904338,35.232191
736,גילת,GILAT,6,62,622.0,42.0,344.0,1.0,1437.0,1437.0,1433.0,,1949,310,1.0,1668758193.0,126.0,651.0,10001893.0,2018,Gilat,620.0,Gilat,31.326321000000004,34.648934000000004
262,גינוסר,GINNOSAR,2,22,221.0,6.0,,1.0,593.0,590.0,568.0,3.0,1937,330,15.0,2493075035.0,-214.0,214.0,10004552.0,2018,Ginnosar,214.0,Ginnosar,32.848665999999994,35.523152
92,גיניגר,GINNEGAR,2,23,234.0,9.0,,1.0,707.0,690.0,665.0,17.0,1922,330,15.0,2244572993.0,79.0,254.0,10004411.0,2018,Ginnegar,213.0,Ginnegar,32.663419,35.259861
863,גינתון,GINNATON,4,43,432.0,25.0,142.0,1.0,902.0,900.0,878.0,2.0,1949,310,1.0,1919965223.0,49.0,424.0,10002261.0,2018,Ginnaton,,Ginnaton,31.962801000000002,34.913062
1206,גיתה,GITTA,2,24,243.0,52.0,,1.0,286.0,286.0,247.0,,1980,370,13.0,2236176356.0,409.0,255.0,10004484.0,2018,Gitta,212.0,Gitta,32.967233,35.249125
3613,גיתית,GITTIT,7,75,,75.0,,1.0,476.0,476.0,474.0,,1973,310,9.0,2375966764.0,252.0,712.0,10003262.0,2018,Gittit,,Gittit,32.100273,35.395443
393,גלאון,GAL'ON,6,61,611.0,35.0,,1.0,549.0,549.0,526.0,,1946,330,15.0,1856261577.0,180.0,632.0,10001813.0,2018,Gal'on,420.0,Gal'on,31.633371,34.848898
3606,גלגל,GILGAL,7,75,,75.0,,1.0,178.0,162.0,150.0,16.0,1970,330,15.0,2424165627.0,-261.0,712.0,10003262.0,2018,Gilgal,,Gilgal,32.0747282,34.7672321
346,גליל ים,GELIL YAM,5,51,511.0,19.0,121.0,1.0,520.0,520.0,516.0,,1943,330,15.0,1842067381.0,34.0,401.0,10001605.0,2018,Gelil Yam,,Gelil Yam,32.158797,34.831876
369,גלעד (אבן יצחק),GAL'ED (EVEN YIZHAQ),2,23,236.0,13.0,,1.0,490.0,489.0,472.0,1.0,1945,330,15.0,2074471810.0,168.0,254.0,10004394.0,2018,Gal'ed (Even Yizhaq),213.0,Gal'ed (Even Yizhaq),32.558075,35.076559
745,גמזו,GIMZO,4,43,431.0,25.0,142.0,1.0,1206.0,1206.0,1206.0,,1950,310,8.0,1945464834.0,86.0,424.0,10002261.0,2018,Gimzo,,Gimzo,31.927217,34.941128000000006
1072,גן הדרום,GAN HADAROM,4,44,441.0,32.0,143.0,1.0,614.0,614.0,609.0,,1953,310,10.0,1717663473.0,35.0,456.0,10001821.0,2018,Gan HaDarom,,Gan HaDarom,31.804056,34.699870000000004
225,גן השומרון,GAN HASHOMERON,3,32,324.0,14.0,,1.0,840.0,839.0,831.0,1.0,1934,310,10.0,2000870764.0,38.0,351.0,10004261.0,2018,Gan HaShomeron,,Gan HaShomeron,32.465007,34.999047
239,גן חיים,GAN HAYYIM,4,42,421.0,20.0,141.0,1.0,834.0,831.0,821.0,3.0,1935,310,1.0,1912867798.0,49.0,417.0,10002133.0,2018,Gan Hayyim,,Gan Hayyim,32.195761,34.906957
734,גן יאשיה,GAN YOSHIYYA,4,41,412.0,16.0,141.0,1.0,990.0,990.0,975.0,,1949,310,1.0,1996469519.0,27.0,409.0,15000060.0,2018,Gan Yoshiyya,,Gan Yoshiyya,32.349486999999996,34.996245
166,גן יבנה,GAN YAVNE,4,44,441.0,99.0,143.0,1.0,23752.0,23683.0,22931.0,69.0,1931,160,,1724863297.0,29.0,429.0,10001821.0,2018,Gan Yavne,,Gan Yavne,31.783056,34.703101000000004
1274,גן נר,GAN NER,2,23,232.0,8.0,,1.0,2704.0,2699.0,2635.0,5.0,1987,190,,2319971531.0,117.0,204.0,10004394.0,2018,Gan Ner,213.0,Gan Ner,32.528706,35.336254
311,גן שורק,GAN SOREQ,4,44,442.0,27.0,143.0,1.0,688.0,688.0,684.0,,1950,310,1.0,1775365029.0,29.0,456.0,15002488.0,2018,Gan Soreq,,Gan Soreq,31.944011,34.758322
144,גן שלמה,GAN SHELOMO,4,44,441.0,28.0,143.0,1.0,572.0,572.0,528.0,,1927,330,15.0,1810764287.0,37.0,456.0,15002488.0,2018,Gan Shelomo,420.0,Gan Shelomo,31.878777000000003,34.798901
72,גן שמואל,GAN SHEMU'EL,3,32,324.0,14.0,,1.0,929.0,928.0,909.0,1.0,1913,330,15.0,1955870649.0,16.0,351.0,10004261.0,2018,Gan Shemu'el,,Gan Shemu'el,32.452911,34.949311
836,גנות,GANNOT,4,43,432.0,40.0,133.0,1.0,589.0,589.0,586.0,,1953,310,10.0,1839465836.0,23.0,425.0,10002207.0,2018,Gannot,,Gannot,32.018204,34.825877
549,גנות הדר,GANNOT HADAR,4,41,411.0,18.0,141.0,1.0,960.0,960.0,950.0,,1964,350,,1908469191.0,41.0,412.0,15000060.0,2018,Gannot Hadar,,Gannot Hadar,32.321740000000005,34.900715000000005
1103,גני הדר,GANNE HADAR,4,43,432.0,30.0,143.0,1.0,321.0,321.0,319.0,,1958,350,,1862764289.0,80.0,426.0,10002241.0,2018,Ganne Hadar,,Ganne Hadar,31.8782413,34.857588
1371,גני טל,GANNE TAL,4,44,441.0,31.0,143.0,1.0,802.0,802.0,802.0,,2010,370,2.0,1803963293.0,71.0,456.0,15002488.0,2018,Ganne Tal,420.0,Ganne Tal,31.793796,34.792327
862,גני יוחנן,GANNE YOHANAN,4,44,441.0,30.0,143.0,1.0,629.0,629.0,623.0,,1950,310,1.0,1848064064.0,52.0,426.0,10002241.0,2018,Ganne Yohanan,,Ganne Yohanan,31.859924,34.840827000000004
3823,גני מודיעין,GANNE MODI'IN,7,74,,73.0,,1.0,2488.0,2488.0,2484.0,,1996,190,,2017564847.0,179.0,711.0,10004054.0,2018,Ganne Modi'in,,Ganne Modi'in,31.930809999999997,35.017804999999996
218,גני עם,GANNE AM,4,42,421.0,20.0,142.0,1.0,242.0,242.0,240.0,,1934,350,,1908667313.0,29.0,417.0,10002133.0,2018,Ganne Am,,Ganne Am,32.149838,34.903358000000004
229,גני תקווה,GANNE TIQWA,4,42,422.0,99.0,132.0,1.0,19263.0,19252.0,19001.0,11.0,1953,170,,1883666301.0,60.0,428.0,10001516.0,2018,Ganne Tiqwa,,Ganne Tiqwa,32.060497,34.873121000000005
842,געש,GA'ASH,4,41,411.0,19.0,141.0,1.0,763.0,763.0,750.0,,1951,330,15.0,1836668178.0,28.0,401.0,15000060.0,2018,Ga'ash,,Ga'ash,32.228477000000005,34.824411
463,געתון,GA'TON,2,24,243.0,4.0,,1.0,693.0,691.0,679.0,2.0,1948,330,15.0,2204176793.0,305.0,201.0,10004302.0,2018,Ga'ton,212.0,Ga'ton,33.006075,35.213831
39,גפן,GEFEN,1,11,112.0,26.0,,1.0,405.0,405.0,401.0,,1955,310,2.0,1885762761.0,140.0,151.0,15000597.0,2018,Gefen,,Gefen,31.740765999999997,34.878563
1129,גרופית,GEROFIT,6,62,625.0,53.0,,1.0,248.0,246.0,235.0,2.0,1963,330,15.0,2059542802.0,97.0,608.0,10001955.0,2018,Gerofit,,Gerofit,29.941616999999997,35.064690999999996
4022,גשור,GESHUR,2,29,294.0,71.0,,1.0,283.0,283.0,272.0,,1971,330,15.0,2674574724.0,331.0,219.0,10004579.0,2018,Geshur,211.0,Geshur,32.819941,35.715708
305,גשר,GESHER,2,23,231.0,7.0,,1.0,421.0,419.0,400.0,2.0,1939,330,15.0,2519972518.0,-220.0,202.0,10004568.0,2018,Gesher,214.0,Gesher,32.621204999999996,35.550376
574,גשר הזיו,GESHER HAZIW,2,24,245.0,4.0,241.0,1.0,1644.0,1634.0,1594.0,10.0,1949,330,15.0,2108077155.0,-16.0,201.0,10004302.0,2018,Gesher HaZiw,212.0,Gesher HaZiw,33.040532,35.110563
340,גת (קיבוץ),GAT(QIBBUZ),6,61,611.0,35.0,,1.0,827.0,827.0,800.0,,1941,330,15.0,1805861511.0,131.0,632.0,10001813.0,2018,Gat(Qibbuz),420.0,Gat(Qibbuz),31.627796000000004,34.794112
128,גת רימון,GAT RIMMON,4,42,422.0,20.0,132.0,1.0,312.0,312.0,306.0,,1926,350,,1888366395.0,53.0,417.0,10002116.0,2018,Gat Rimmon,,Gat Rimmon,32.068104999999996,34.881362
494,דאלית אל-כרמל,DALIYAT AL-KARMEL,3,31,311.0,99.0,223.0,2.0,17427.0,45.0,33.0,17382.0,,270,,2050573325.0,289.0,356.0,10004171.0,2018,Daliyat Al-Karmel,,Daliyat Al-Karmel,32.693796,35.055446999999994
146,דבורה,DEVORA,2,23,234.0,8.0,,1.0,232.0,232.0,227.0,,1956,310,1.0,2250571762.0,66.0,204.0,10004394.0,2018,Devora,213.0,Devora,32.552895,35.263853000000005
489,דבורייה,DABURIYYA,2,23,237.0,99.0,,2.0,10402.0,16.0,12.0,10386.0,,270,,2351373300.0,110.0,251.0,10004394.0,2018,Daburiyya,213.0,Daburiyya,32.69412,35.368513
849,דבירה,DEVIRA,6,62,623.0,41.0,341.0,1.0,999.0,996.0,972.0,3.0,1951,330,15.0,1833659122.0,290.0,625.0,10001937.0,2018,Devira,620.0,Devira,31.411699,34.825177000000004
407,דברת,DAVERAT,2,23,234.0,9.0,,1.0,439.0,437.0,412.0,2.0,1946,330,15.0,2330572809.0,156.0,254.0,10004394.0,2018,Daverat,213.0,Daverat,32.646729,35.350085
62,דגניה א',DEGANYA ALEF,2,22,221.0,6.0,,1.0,538.0,537.0,535.0,1.0,1909,330,15.0,2541873489.0,-203.0,214.0,10004552.0,2018,Deganya Alef,214.0,Deganya Alef,32.706938,35.575062
79,דגניה ב',DEGANYA BET,2,22,221.0,6.0,,1.0,655.0,655.0,646.0,,1920,330,15.0,2542173403.0,-210.0,214.0,10004552.0,2018,Deganya Bet,214.0,Deganya Bet,32.69907,35.577551
1067,"דוב""ב",DOVEV,2,24,244.0,2.0,,1.0,487.0,487.0,484.0,,1963,310,1.0,2383977297.0,742.0,209.0,10004528.0,2018,Dovev,211.0,Dovev,33.0508,35.407747
3747,דולב,DOLEV,7,74,,73.0,,1.0,1341.0,1341.0,1341.0,,1983,370,11.0,2127464816.0,456.0,711.0,10004054.0,2018,Dolev,,Dolev,31.926249,35.133590999999996
738,דור,DOR,3,32,321.0,15.0,243.0,1.0,433.0,433.0,427.0,,1949,310,1.0,1928472374.0,0.0,303.0,10004333.0,2018,Dor,,Dor,32.607802,34.923316
336,דורות,DOROT,6,61,614.0,37.0,,1.0,822.0,820.0,795.0,2.0,1941,330,15.0,1663560173.0,89.0,651.0,10001829.0,2018,Dorot,620.0,Dorot,31.507207,34.645725
475,דחי,DAHI,2,23,234.0,66.0,,2.0,691.0,,,691.0,,450,,2325872519.0,366.0,251.0,10004394.0,2018,Dahi,213.0,Dahi,32.622491,35.343604
490,דייר אל-אסד,DEIR AL-ASAD,2,24,242.0,99.0,,2.0,12348.0,5.0,5.0,12343.0,,270,,2254176009.0,264.0,260.0,15002358.0,2018,Deir Al-Asad,210.0,Deir Al-Asad,32.93445,35.268394
492,דייר חנא,DEIR HANNA,2,24,241.0,99.0,,2.0,10259.0,15.0,,10244.0,,270,,2348075200.0,90.0,262.0,10004513.0,2018,Deir Hanna,,Deir Hanna,32.862316,35.365253
493,דייר ראפאת,DEIR RAFAT,1,11,112.0,26.0,444.0,2.0,94.0,,,94.0,,440,,1950863156.0,240.0,151.0,15000597.0,2018,Deir Rafat,,Deir Rafat,31.776529999999998,34.947439
2200,דימונה,DIMONA,6,62,626.0,0.0,,1.0,34135.0,33922.0,30733.0,213.0,1955,160,,2033055318.0,328.0,607.0,10001918.0,2018,Dimona,610.0,Dimona,31.069419,35.033363
2063,דישון,DISHON,2,21,212.0,55.0,,1.0,351.0,350.0,344.0,1.0,1953,310,6.0,2488277637.0,338.0,253.0,10004591.0,2018,Dishon,211.0,Dishon,33.082318,35.517571999999994
300,דלייה,DALIYYA,2,23,236.0,13.0,,1.0,801.0,800.0,742.0,1.0,1939,330,15.0,2072972171.0,170.0,254.0,10004394.0,2018,Daliyya,213.0,Daliyya,32.58925,35.076965
431,דלתון,DALTON,2,21,212.0,2.0,,1.0,861.0,861.0,861.0,,1950,310,2.0,2460576912.0,702.0,209.0,10004528.0,2018,Dalton,211.0,Dalton,33.016553,35.489911
1317,דמיידה,DEMEIDE,2,24,241.0,56.0,241.0,2.0,510.0,,,510.0,,450,,2216374673.0,150.0,205.0,10004513.0,2018,Demeide,210.0,Demeide,32.8149647,35.226564200000006
303,דן,DAN,2,21,211.0,1.0,,1.0,732.0,731.0,711.0,1.0,1939,330,15.0,2612879396.0,160.0,253.0,10004591.0,2018,Dan,211.0,Dan,33.239745,35.653803
302,דפנה,DAFNA,2,21,211.0,1.0,,1.0,965.0,964.0,957.0,1.0,1939,330,15.0,2599179280.0,121.0,253.0,10004591.0,2018,Dafna,211.0,Dafna,33.23075,35.638268
1241,דקל,DEQEL,6,62,622.0,38.0,,1.0,341.0,341.0,333.0,,1982,310,10.0,1377356740.0,90.0,651.0,10001893.0,2018,Deqel,620.0,Deqel,31.195908000000003,34.346771000000004
1349,דריג'את,DERIG'AT,6,62,623.0,69.0,,2.0,1199.0,1.0,,1198.0,,450,,2072057882.0,530.0,624.0,10001937.0,2018,Derig'at,610.0,Derig'at,31.301885,35.076793
702,האון,HAON,2,22,221.0,6.0,,1.0,181.0,181.0,166.0,,1949,330,15.0,2585973681.0,-210.0,214.0,10004552.0,2018,HaOn,214.0,HaOn,32.726748,35.622665000000005
675,הבונים,HABONIM,3,32,321.0,15.0,243.0,1.0,349.0,349.0,349.0,,1949,320,15.0,1939572700.0,9.0,303.0,10004333.0,2018,HaBonim,,HaBonim,32.636586,34.932704
356,הגושרים,HAGOSHERIM,2,21,211.0,1.0,,1.0,809.0,809.0,757.0,,1948,330,15.0,2585379177.0,89.0,253.0,10004591.0,2018,HaGosherim,211.0,HaGosherim,33.221484999999994,35.623028000000005
191,הדר עם,HADAR AM,4,41,411.0,16.0,141.0,1.0,693.0,693.0,688.0,,1933,310,10.0,1908869507.0,18.0,409.0,15000060.0,2018,Hadar Am,,Hadar Am,32.349653,34.898945
9700,הוד השרון,HOD HASHARON,4,42,421.0,0.0,131.0,1.0,62325.0,62286.0,60949.0,39.0,1924,150,,1901767323.0,10.0,423.0,10002133.0,2018,Hod HaSharon,,Hod HaSharon,32.149961,34.88387879999999
1322,הודיות,HODAYOT,2,22,222.0,3.0,,1.0,316.0,316.0,221.0,,1959,340,,2410774379.0,276.0,206.0,10004552.0,2018,Hodayot,214.0,Hodayot,32.788610999999996,35.435
726,הודייה,HODIYYA,6,61,614.0,36.0,,1.0,535.0,534.0,516.0,1.0,1949,310,1.0,1660062041.0,44.0,633.0,10001821.0,2018,Hodiyya,,Hodiyya,31.676356,34.639275
1169,הוואשלה (שבט),HAWASHLA,6,62,623.0,,,3.0,,,,,,460,,2020055900.0,,699.0,10001918.0,2018,Al-Hawashila,,Al-Hawashila,,
956,הוזייל (שבט),HUZAYYEL,6,62,623.0,,,3.0,,,,,,460,,1762059080.0,,699.0,10001946.0,2018,Al-Huzayyil,,Al-Huzayyil,,
1186,הושעיה,HOSHA'AYA,2,23,237.0,9.0,,1.0,2023.0,2023.0,2021.0,,1981,190,,2276174046.0,175.0,254.0,15002369.0,2018,Hosha'aya,213.0,Hosha'aya,32.757927,35.295225
250,הזורע,HAZOREA,2,23,235.0,13.0,,1.0,876.0,876.0,832.0,,1936,330,15.0,2114872773.0,49.0,254.0,10004394.0,2018,HaZorea,213.0,HaZorea,32.644515999999996,35.11918
307,הזורעים,HAZORE'IM,2,22,222.0,3.0,,1.0,1035.0,1035.0,1035.0,,1939,310,2.0,2473873908.0,-71.0,206.0,10004552.0,2018,HaZore'im,214.0,HaZore'im,32.644515999999996,35.11918
434,החותרים,HAHOTERIM,3,32,321.0,15.0,223.0,1.0,809.0,809.0,791.0,,1948,330,15.0,1962573976.0,10.0,303.0,10004710.0,2018,HaHoterim,,HaHoterim,32.752311,34.957545
684,היוגב,HAYOGEV,2,23,234.0,9.0,,1.0,715.0,715.0,709.0,,1949,310,1.0,2194972416.0,67.0,254.0,10004394.0,2018,HaYogev,213.0,HaYogev,32.612753000000005,35.207483
1208,הילה,HILLA,2,24,243.0,52.0,,1.0,578.0,577.0,564.0,1.0,1980,370,19.0,2231777125.0,445.0,255.0,10004484.0,2018,Hilla,212.0,Hilla,33.036175,35.244582
377,המעפיל,HAMA'PIL,4,41,412.0,16.0,141.0,1.0,855.0,855.0,846.0,,1945,330,15.0,1985969829.0,28.0,409.0,15000060.0,2018,HaMa'pil,,HaMa'pil,32.378035,34.983146000000005
677,הסוללים,HASOLELIM,2,23,237.0,9.0,242.0,1.0,927.0,924.0,909.0,3.0,1949,330,6.0,2225673956.0,136.0,254.0,10004426.0,2018,HaSolelim,213.0,HaSolelim,32.751802000000005,35.238021999999994
423,העוגן,HAOGEN,4,41,411.0,16.0,141.0,1.0,908.0,908.0,884.0,,1947,330,15.0,1930669651.0,9.0,409.0,15000060.0,2018,HaOgen,,HaOgen,32.360437,34.923338
3769,הר אדר,HAR ADAR,7,74,,99.0,445.0,1.0,4056.0,4053.0,3965.0,3.0,1986,190,,2123263711.0,727.0,720.0,10002475.0,2018,Har Adar,,Har Adar,31.824501,35.12966
3603,הר גילה,HAR GILLO,7,76,,76.0,445.0,1.0,1590.0,1568.0,1533.0,22.0,1972,370,19.0,2163962544.0,835.0,714.0,10002521.0,2018,Har Gillo,,Har Gillo,31.722058,35.171490999999996
1261,הר עמשא,HAR AMASA,6,62,623.0,51.0,,1.0,181.0,176.0,152.0,5.0,1983,330,,2097058352.0,808.0,656.0,10001937.0,2018,Har Amasa,,Har Amasa,31.342716999999997,35.101599
464,הראל,HAR'EL,1,11,112.0,26.0,444.0,1.0,269.0,269.0,260.0,,1948,330,15.0,1953163517.0,170.0,151.0,15000597.0,2018,Har'el,,Har'el,31.808975,34.947959000000004
1249,הרדוף,HARDUF,2,23,237.0,9.0,242.0,1.0,1106.0,1099.0,1035.0,7.0,1982,330,15.0,2165274100.0,170.0,254.0,10004497.0,2018,Harduf,213.0,Harduf,32.763717,35.174663
6400,הרצלייה,HERZLIYYA,5,51,511.0,0.0,121.0,1.0,95142.0,94991.0,90497.0,151.0,1924,150,,1845367521.0,-6.0,504.0,10001605.0,2018,Herzliyya,,Herzliyya,32.162413,34.844675
1203,הררית,HARARIT,2,24,241.0,56.0,,1.0,510.0,510.0,495.0,,1980,370,7.0,2346875012.0,400.0,205.0,10004513.0,2018,Hararit,210.0,Hararit,32.845696000000004,35.369257
3639,ורד יריחו,WERED YERIHO,7,75,,74.0,,1.0,317.0,317.0,312.0,,1980,310,10.0,2411063710.0,-220.0,713.0,10003314.0,2018,Wered Yeriho,,Wered Yeriho,31.826192,35.432139
1133,ורדון,WARDON,6,61,611.0,35.0,,1.0,286.0,286.0,279.0,,1968,350,,1793961911.0,98.0,632.0,10001813.0,2018,Wardon,420.0,Wardon,31.663822999999997,34.781766
2742,זבארגה (שבט),ZABARGA,6,62,623.0,,,3.0,,,,,,460,,2032057170.0,435.0,699.0,15003711.0,2018,Az-Zabarika,,Az-Zabarika,,
815,זבדיאל,ZAVDI'EL,6,61,611.0,34.0,,1.0,527.0,527.0,527.0,,1950,310,8.0,1773161858.0,78.0,631.0,10001813.0,2018,Zavdi'el,,Zavdi'el,31.6592451,34.7602609
44,זוהר,ZOHAR,6,61,612.0,50.0,,1.0,359.0,359.0,357.0,,1956,310,10.0,1708861156.0,109.0,634.0,10001813.0,2018,Zohar,,Zohar,31.595592,34.692362
584,זיקים,ZIQIM,6,61,614.0,36.0,,1.0,809.0,793.0,757.0,16.0,1949,330,15.0,1546461319.0,15.0,633.0,10001829.0,2018,Ziqim,,Ziqim,31.607204,34.520967999999996
788,זיתן,ZETAN,4,43,432.0,40.0,133.0,1.0,1081.0,1081.0,1078.0,,1950,310,1.0,1897765366.0,8.0,425.0,10002261.0,2018,Zetan,,Zetan,31.975178000000003,34.891732
9300,זכרון יעקב,ZIKHRON YA'AQOV,3,32,322.0,99.0,,1.0,23075.0,23025.0,22208.0,50.0,1882,160,,1957871961.0,7.0,353.0,10004333.0,2018,Zikhron Ya'aqov,,Zikhron Ya'aqov,32.573904999999996,34.951977
799,זכריה,ZEKHARYA,1,11,112.0,26.0,,1.0,1108.0,1108.0,1086.0,,1950,310,1.0,1948562415.0,230.0,151.0,15000597.0,2018,Zekharya,,Zekharya,31.708811999999998,34.944708
1290,זמר,ZEMER,4,41,412.0,99.0,141.0,2.0,6940.0,7.0,,6933.0,,280,,2035169685.0,42.0,458.0,10002155.0,2018,Zemer,,Zemer,32.365684,35.034651000000004
1065,זמרת,ZIMRAT,6,62,621.0,39.0,,1.0,589.0,588.0,587.0,1.0,1957,310,2.0,1574959529.0,115.0,651.0,10001930.0,2018,Zimrat,620.0,Zimrat,31.447853000000002,34.552288
816,זנוח,ZANOAH,1,11,112.0,26.0,444.0,1.0,506.0,492.0,484.0,14.0,1950,310,8.0,2000062667.0,259.0,151.0,15000597.0,2018,Zanoah,,Zanoah,31.733813,34.999369
2064,זרועה,ZERU'A,6,62,621.0,39.0,,1.0,433.0,432.0,430.0,1.0,1953,310,2.0,1642959642.0,121.0,651.0,10001930.0,2018,Zeru'a,620.0,Zeru'a,31.459133,34.624161
975,זרזיר,ZARZIR,2,23,237.0,99.0,242.0,2.0,7942.0,22.0,14.0,7920.0,,280,,2211273668.0,137.0,254.0,10004411.0,2018,Zarzir,,Zarzir,32.723290999999996,35.220436
818,זרחיה,ZERAHYA,6,61,611.0,34.0,,1.0,719.0,719.0,719.0,,1950,310,2.0,1759462110.0,66.0,631.0,10001821.0,2018,Zerahya,,Zerahya,31.681742,34.746419
1321,ח'ואלד,KHAWALED,3,31,311.0,12.0,222.0,2.0,696.0,,,696.0,,450,,2131074174.0,37.0,301.0,10004207.0,2018,Khawaled,,Khawaled,32.758894,35.158374
986,ח'ואלד (שבט),KHAWALED,2,25,237.0,,,3.0,,,,,,460,,2150174051.0,,299.0,10004207.0,2018,Khawalid / Al-Khawalid,,Khawalid / Al-Khawalid,32.758894,35.158374
235,חבצלת השרון,HAVAZZELET HASHARON,4,41,411.0,16.0,141.0,1.0,492.0,492.0,480.0,,1935,310,10.0,1872969635.0,20.0,409.0,10002089.0,2018,Havazzelet HaSharon,,Havazzelet HaSharon,32.3604,34.861819
1110,חבר,HEVER,2,23,234.0,8.0,,1.0,571.0,571.0,541.0,,1958,350,,2250871708.0,70.0,204.0,10004394.0,2018,Hever,213.0,Hever,32.549096999999996,35.264911
717,חגור,HAGOR,4,42,421.0,20.0,142.0,1.0,1156.0,1156.0,1140.0,,1949,310,1.0,1951767159.0,30.0,417.0,15000658.0,2018,Hagor,,Hagor,32.138591,34.947614
3764,חגי,HAGGAY,7,77,,78.0,,1.0,635.0,635.0,635.0,,1984,370,11.0,2076160011.0,820.0,715.0,15003512.0,2018,Haggay,,Haggay,31.49253,35.079537
205,חגלה,HOGLA,4,41,411.0,16.0,141.0,1.0,857.0,857.0,852.0,,1933,310,1.0,1932769927.0,15.0,409.0,15000060.0,2018,Hogla,,Hogla,32.389070000000004,34.924252
4026,חד-נס,HAD-NES,2,29,293.0,71.0,,1.0,823.0,823.0,795.0,,1989,370,9.0,2604175924.0,-49.0,219.0,10004579.0,2018,Had-Nes,211.0,Had-Nes,32.927514,35.641408
618,חדיד,HADID,4,43,432.0,25.0,142.0,1.0,887.0,887.0,886.0,,1950,310,2.0,1936965290.0,59.0,424.0,10002168.0,2018,Hadid,,Hadid,31.969428999999998,34.932156
6500,חדרה,HADERA,3,32,324.0,0.0,,1.0,95683.0,94807.0,88083.0,876.0,1890,150,,1925170467.0,-8.0,302.0,10004261.0,2018,Hadera,,Hadera,32.4340458,34.9196518
948,חוג'ייראת (ד'הרה) (שבט),HUJEIRAT (DAHRA),2,24,241.0,56.0,,3.0,,,,,,460,,2278574887.0,,299.0,10004513.0,2018,Al-Hujayrat (Zahra),210.0,Al-Hujayrat (Zahra),,
160,חולדה,HULDA,4,43,432.0,30.0,143.0,1.0,1096.0,1096.0,1076.0,,1930,330,15.0,1889863766.0,111.0,426.0,10002241.0,2018,Hulda,,Hulda,31.83215,34.881523
6600,חולון,HOLON,5,53,513.0,0.0,123.0,1.0,194273.0,193980.0,178754.0,293.0,1940,140,,1792565823.0,19.0,505.0,10001430.0,2018,Holon,,Holon,32.015833,34.787384
1239,חולית,HOLIT,6,62,622.0,38.0,,1.0,164.0,159.0,152.0,5.0,1980,330,15.0,1357357134.0,73.0,651.0,10001893.0,2018,Holit,620.0,Holit,31.230563,34.32734
253,חולתה,HULATA,2,21,211.0,1.0,,1.0,669.0,668.0,652.0,1.0,1937,330,15.0,2573277301.0,77.0,253.0,10004540.0,2018,Hulata,211.0,Hulata,33.052851000000004,35.609244
662,חוסן,HOSEN,2,24,243.0,52.0,,1.0,1130.0,1128.0,1088.0,2.0,1949,310,9.0,2281476697.0,450.0,255.0,10004484.0,2018,Hosen,212.0,Hosen,32.997699,35.298722999999995
1332,חוסנייה,HUSSNIYYA,2,24,242.0,56.0,,2.0,731.0,5.0,,726.0,,450,,2302975617.0,258.0,205.0,10004513.0,2018,Hussniyya,210.0,Hussniyya,32.900573,35.322507
115,חופית,HOFIT,4,41,411.0,16.0,141.0,1.0,753.0,753.0,744.0,,1955,350,,1883669905.0,8.0,409.0,15000060.0,2018,Hofit,,Hofit,32.386082,34.874078000000004
374,חוקוק,HUQOQ,2,22,221.0,6.0,,1.0,587.0,581.0,551.0,6.0,1945,330,15.0,2466775401.0,-30.0,214.0,10004552.0,2018,Huqoq,214.0,Huqoq,32.878631,35.496654
1303,חורה,HURA,6,62,623.0,99.0,342.0,2.0,21558.0,18.0,14.0,21540.0,,260,,1938957840.0,370.0,652.0,10001937.0,2018,Hura,610.0,Hura,31.300399,34.935688
496,חורפיש,HURFEISH,2,24,244.0,99.0,,2.0,6315.0,1.0,,6314.0,,280,,2326876916.0,529.0,258.0,10004484.0,2018,Hurfeish,212.0,Hurfeish,33.016688,35.347106
355,חורשים,HORESHIM,4,42,421.0,20.0,142.0,1.0,330.0,325.0,313.0,5.0,1955,330,15.0,1974467160.0,58.0,417.0,15000658.0,2018,Horeshim,,Horeshim,32.137875,34.97102
1047,חזון,HAZON,2,21,214.0,2.0,,1.0,324.0,324.0,324.0,,1969,310,2.0,2372775686.0,390.0,209.0,10004465.0,2018,Hazon,211.0,Hazon,32.90658,35.395291
219,חיבת ציון,HIBBAT ZIYYON,4,41,411.0,16.0,141.0,1.0,709.0,709.0,708.0,,1933,310,7.0,1919970042.0,20.0,409.0,15000060.0,2018,Hibbat Ziyyon,,Hibbat Ziyyon,32.397995,34.911931
3643,חיננית,HINNANIT,7,71,,72.0,,1.0,1323.0,1323.0,1159.0,,1981,370,13.0,2159770969.0,330.0,710.0,10003262.0,2018,Hinnanit,,Hinnanit,32.480891,35.173181
4000,חיפה,HAIFA,3,31,311.0,0.0,210.0,4.0,283640.0,250943.0,217360.0,32697.0,ותיק,130,,2011274545.0,-17.0,304.0,10004171.0,2018,Haifa,,Haifa,32.7940463,34.989571000000005
162,חירות,HERUT,4,41,411.0,18.0,141.0,1.0,1309.0,1303.0,1296.0,6.0,1930,310,1.0,1921568301.0,41.0,412.0,15000060.0,2018,Herut,,Herut,32.240973,34.914127
1272,חלוץ,HALUZ,2,24,243.0,56.0,,1.0,516.0,516.0,510.0,,1985,370,13.0,2295276173.0,685.0,205.0,15002358.0,2018,Haluz,210.0,Haluz,32.95055,35.312278000000006
820,חלץ,HELEZ,6,61,614.0,36.0,,1.0,445.0,441.0,440.0,4.0,1950,310,1.0,1676360965.0,69.0,633.0,10001829.0,2018,Helez,,Helez,31.57794,34.658390999999995
993,חמאם,HAMAM,2,22,221.0,65.0,,2.0,1473.0,4.0,4.0,1469.0,,450,,2461874838.0,-174.0,251.0,10004552.0,2018,Hamam,214.0,Hamam,32.828399,35.491721000000005
801,חמד,HEMED,4,43,432.0,40.0,133.0,1.0,1257.0,1257.0,1253.0,,1950,310,2.0,1851165842.0,20.0,425.0,10002207.0,2018,Hemed,,Hemed,32.017992,34.841265
343,חמדיה,HAMADYA,2,23,231.0,7.0,,1.0,364.0,362.0,356.0,2.0,1942,330,15.0,2490971407.0,-184.0,202.0,10004568.0,2018,Hamadya,214.0,Hamadya,32.519773,35.520568
3646,חמדת,HEMDAT,7,75,,75.0,,1.0,278.0,278.0,278.0,,1980,370,11.0,2497768423.0,110.0,712.0,10003262.0,2018,Hemdat,,Hemdat,32.252028,35.526843
3609,חמרה,HAMRA,7,75,,75.0,,1.0,175.0,175.0,167.0,,1971,310,10.0,2412967837.0,-81.0,712.0,10003262.0,2018,Hamra,,Hamra,32.199688,35.43735
807,חניאל,HANNI'EL,4,41,411.0,16.0,141.0,1.0,933.0,933.0,911.0,,1950,310,1.0,1954169328.0,28.0,409.0,15000060.0,2018,Hanni'el,,Hanni'el,32.332803000000006,34.947693
280,חניתה,HANITA,2,24,244.0,4.0,,1.0,761.0,760.0,731.0,1.0,1938,330,15.0,2166577698.0,259.0,201.0,10004302.0,2018,Hanita,212.0,Hanita,33.087634,35.173429999999996
1257,חנתון,HANNATON,2,23,237.0,9.0,241.0,1.0,963.0,962.0,953.0,1.0,1984,330,15.0,2232574324.0,154.0,254.0,10004497.0,2018,Hannaton,213.0,Hannaton,32.783051,35.245063
4005,חספין,HASPIN,2,29,294.0,71.0,,1.0,2057.0,2057.0,2055.0,,1973,190,,2746275023.0,410.0,219.0,10004579.0,2018,Haspin,211.0,Haspin,32.8456305,35.7929907
363,חפץ חיים,HAFEZ HAYYIM,4,44,441.0,31.0,143.0,1.0,561.0,561.0,561.0,,1944,330,8.0,1811563304.0,70.0,456.0,15002488.0,2018,Hafez Hayyim,420.0,Hafez Hayyim,31.789319,34.799739
90,חפצי-בה,HEFZI-BAH,2,23,232.0,8.0,,1.0,741.0,741.0,715.0,,1922,330,15.0,2402171382.0,-89.0,204.0,10004568.0,2018,Hefzi-Bah,213.0,Hefzi-Bah,32.518729,35.426247
700,חצב,HAZAV,6,61,611.0,33.0,143.0,1.0,1467.0,1467.0,1445.0,,1949,310,1.0,1782763212.0,50.0,616.0,10001821.0,2018,Hazav,420.0,Hazav,31.780095000000003,34.770571999999994
13,חצבה,HAZEVA,6,62,625.0,54.0,,1.0,605.0,595.0,561.0,10.0,1965,310,1.0,2266751974.0,-160.0,657.0,10001918.0,2018,Hazeva,610.0,Hazeva,30.767941999999998,35.278498
406,חצור-אשדוד,HAZOR-ASHDOD,6,61,611.0,33.0,143.0,1.0,624.0,624.0,600.0,,1937,330,15.0,1735963120.0,32.0,616.0,10001821.0,2018,Hazor-Ashdod,420.0,Hazor-Ashdod,31.772744,34.719366
2034,חצור הגלילית,HAZOR HAGELILIT,2,21,213.0,99.0,,1.0,9165.0,9130.0,8906.0,35.0,1953,180,,2511676532.0,279.0,259.0,10004540.0,2018,Hazor HaGelilit,211.0,Hazor HaGelilit,32.980382,35.543548
397,חצרים,HAZERIM,6,62,623.0,41.0,344.0,1.0,832.0,832.0,815.0,,1946,330,15.0,1726957221.0,237.0,625.0,10001900.0,2018,Hazerim,620.0,Hazerim,31.240603000000004,34.717427
422,חרב לאת,HEREV LE'ET,4,41,411.0,16.0,141.0,1.0,945.0,945.0,926.0,,1947,310,10.0,1924070091.0,20.0,409.0,15000060.0,2018,Herev Le'Et,,Herev Le'Et,32.403526,34.917146
1024,חרוצים,HARUZIM,4,41,411.0,19.0,141.0,1.0,866.0,866.0,859.0,,1951,350,,1874468161.0,39.0,401.0,15000060.0,2018,Haruzim,,Haruzim,32.227709999999995,34.864771999999995
1247,חריש,HARISH,3,32,323.0,99.0,,1.0,7569.0,7447.0,6940.0,122.0,1982,180,,2044270746.0,59.0,307.0,10004233.0,2018,Harish,,Harish,32.4618771,35.0455828
3717,חרמש,HERMESH,7,71,,72.0,,1.0,228.0,228.0,204.0,,1982,370,9.0,2114170327.0,226.0,710.0,10003262.0,2018,Hermesh,,Hermesh,32.423726,35.118992999999996
1209,חרשים,HARASHIM,2,24,243.0,56.0,,1.0,329.0,329.0,308.0,,1980,370,19.0,2310076241.0,780.0,205.0,10004465.0,2018,Harashim,210.0,Harashim,32.957737,35.328216999999995
3770,חשמונאים,HASHMONA'IM,7,74,,73.0,,1.0,2760.0,2760.0,2753.0,,1985,190,,2023664873.0,228.0,711.0,10004054.0,2018,Hashmona'im,,Hashmona'im,31.932631,35.023269
6700,טבריה,TIBERIAS,2,22,221.0,0.0,,1.0,44234.0,43556.0,40848.0,678.0,ותיק,160,,2494274369.0,-227.0,207.0,10004552.0,2018,Tiberias,214.0,Tiberias,32.795859,35.530972999999996
962,טובא-זנגרייה,TUBA-ZANGARIYYE,2,21,213.0,99.0,,2.0,6667.0,7.0,3.0,6660.0,,280,,2556376342.0,240.0,259.0,10004540.0,2018,Tuba-Zangariyye,211.0,Tuba-Zangariyye,32.96621,35.592017999999996
498,טורעאן,TUR'AN,2,25,237.0,99.0,,2.0,14036.0,6.0,4.0,14030.0,,270,,2354874243.0,179.0,251.0,15002369.0,2018,Tur'an,214.0,Tur'an,32.775137,35.378344
2730,טייבה,TAYIBE,4,41,412.0,0.0,141.0,2.0,43127.0,57.0,29.0,43070.0,,260,,2008068569.0,39.0,402.0,10002155.0,2018,Tayibe,410.0,Tayibe,32.266892,35.009675
497,טייבה (בעמק),TAYIBE(BAEMEQ),2,23,233.0,8.0,,2.0,1843.0,5.0,5.0,1838.0,,450,,2420372335.0,60.0,204.0,10004394.0,2018,Tayibe(Baemeq),213.0,Tayibe(Baemeq),32.603882,35.44368
2720,טירה,TIRE,4,41,412.0,0.0,141.0,2.0,26162.0,69.0,22.0,26093.0,,260,,1958168225.0,45.0,403.0,10002155.0,2018,Tire,,Tire,32.235465999999995,34.950506
663,טירת יהודה,TIRAT YEHUDA,4,42,422.0,25.0,142.0,1.0,1189.0,1189.0,1188.0,,1949,310,2.0,1938865787.0,50.0,424.0,10002168.0,2018,Tirat Yehuda,,Tirat Yehuda,32.014833,34.935878
2100,טירת כרמל,TIRAT KARMEL,3,31,311.0,0.0,223.0,1.0,22210.0,22121.0,21126.0,89.0,1949,160,,1976774079.0,-1.0,355.0,10004710.0,2018,Tirat Karmel,,Tirat Karmel,32.762127,34.97298
268,טירת צבי,TIRAT ZEVI,2,23,231.0,7.0,,1.0,904.0,904.0,904.0,,1937,330,3.0,2499570302.0,-229.0,202.0,10004568.0,2018,Tirat Zevi,214.0,Tirat Zevi,32.422486,35.52832
1181,טל-אל,TAL-EL,2,24,243.0,56.0,241.0,1.0,1174.0,1174.0,1140.0,,1980,370,13.0,2169975908.0,70.0,205.0,10004315.0,2018,Tal-El,210.0,Tal-El,32.927306,35.182499
462,טל שחר,TAL SHAHAR,1,11,112.0,26.0,,1.0,1366.0,1366.0,1347.0,,1948,310,1.0,1908763474.0,100.0,151.0,15000597.0,2018,Tal Shahar,,Tal Shahar,31.804403999999998,34.903271999999994
1177,טללים,TELALIM,6,62,626.0,48.0,,1.0,509.0,509.0,493.0,,1980,330,15.0,1779654464.0,350.0,620.0,10001918.0,2018,Telalim,610.0,Telalim,30.991511,34.771260999999996
3788,טלמון,TALMON,7,74,,73.0,,1.0,4349.0,4349.0,4346.0,,1989,190,,2128164953.0,446.0,711.0,10004054.0,2018,Talmon,,Talmon,31.939475,35.133131
8900,טמרה,TAMRA,2,24,241.0,0.0,241.0,2.0,33851.0,39.0,18.0,33812.0,,260,,2180675104.0,10.0,263.0,15002411.0,2018,Tamra,,Tamra,32.852247,35.201315
547,טמרה (יזרעאל),TAMRA (YIZRE'EL),2,23,233.0,8.0,,2.0,1578.0,,,1578.0,,450,,2381772670.0,160.0,204.0,10004394.0,2018,Tamra (Yizre'el),213.0,Tamra (Yizre'el),32.634918,35.402699
3743,טנא,TENE,7,77,,78.0,,1.0,848.0,848.0,838.0,,1983,370,11.0,1959158706.0,498.0,715.0,15003512.0,2018,Tene,,Tene,31.376132000000002,34.957383
1214,טפחות,TEFAHOT,2,21,214.0,2.0,,1.0,484.0,484.0,484.0,,1980,310,2.0,2398375265.0,45.0,209.0,10004552.0,2018,Tefahot,211.0,Tefahot,32.868562,35.422204
1295,יאנוח-ג'ת,YANUH-JAT,2,24,243.0,99.0,,2.0,6614.0,2.0,2.0,6612.0,,280,,2232776506.0,159.0,255.0,10004484.0,2018,Yanuh-Jat,,Yanuh-Jat,32.981567999999996,35.241169
1232,יבול,YEVUL,6,62,622.0,38.0,,1.0,340.0,340.0,338.0,,1981,310,10.0,1347956688.0,80.0,651.0,10001893.0,2018,Yevul,620.0,Yevul,31.189458000000002,34.318952
46,יבנאל,YAVNE'EL,2,22,222.0,99.0,,1.0,4294.0,4293.0,4235.0,1.0,1901,190,,2477973510.0,-127.0,251.0,10004552.0,2018,Yavne'el,,Yavne'el,32.708765,35.503778000000004
2660,יבנה,YAVNE,4,44,441.0,0.0,143.0,1.0,46705.0,46642.0,45412.0,63.0,1949,160,,1752064277.0,20.0,404.0,15002488.0,2018,Yavne,,Yavne,31.877958000000003,34.739449
96,יגור,YAGUR,3,31,311.0,12.0,223.0,1.0,1604.0,1604.0,1501.0,,1922,330,15.0,2075573859.0,7.0,301.0,10004207.0,2018,Yagur,,Yagur,32.741532,35.076826000000004
798,יגל,YAGEL,4,43,432.0,40.0,133.0,1.0,929.0,929.0,927.0,,1950,310,1.0,1887165509.0,35.0,425.0,10002261.0,2018,Yagel,,Yagel,31.987792,34.880262
577,יד בנימין,YAD BINYAMIN,4,44,441.0,31.0,143.0,1.0,4175.0,4175.0,4172.0,,1949,190,,1832563395.0,60.0,456.0,15002488.0,2018,Yad Binyamin,420.0,Yad Binyamin,31.796684999999997,34.820370000000004
1134,יד השמונה,YAD HASHEMONA,1,11,111.0,26.0,444.0,1.0,303.0,303.0,139.0,,1978,320,10.0,2085863523.0,641.0,151.0,10002475.0,2018,Yad HaShemona,,Yad HaShemona,31.80955,35.089617
758,יד חנה,YAD HANNA,4,41,412.0,16.0,141.0,1.0,926.0,924.0,903.0,2.0,1950,330,15.0,2007869249.0,45.0,409.0,10002155.0,2018,Yad Hanna,,Yad Hanna,32.325311,35.006692
358,יד מרדכי,YAD MORDEKHAY,6,61,614.0,36.0,,1.0,767.0,766.0,737.0,1.0,1943,330,15.0,1581461092.0,33.0,633.0,10001829.0,2018,Yad Mordekhay,,Yad Mordekhay,31.586963,34.5575
775,יד נתן,YAD NATAN,6,61,612.0,50.0,,1.0,638.0,637.0,630.0,1.0,1953,310,6.0,1721361789.0,70.0,634.0,10001813.0,2018,Yad Natan,,Yad Natan,31.652960999999998,34.704874
64,"יד רמב""ם",YAD RAMBAM,4,43,432.0,30.0,143.0,1.0,1094.0,1094.0,1071.0,,1955,310,2.0,1907264528.0,70.0,426.0,10002228.0,2018,Yad Rambam,,Yad Rambam,31.899841,34.900086
1144,ידידה,YEDIDA,1,11,111.0,26.0,444.0,1.0,212.0,212.0,210.0,,1964,340,,2100963561.0,716.0,151.0,10002475.0,2018,Yedida,,Yedida,31.812281,35.104639
9400,יהוד,YEHUD,4,42,422.0,0.0,132.0,1.0,29930.0,29892.0,29368.0,38.0,1948,160,,1893966002.0,30.0,411.0,10001516.0,2018,Yehud,,Yehud,32.0340049,34.8859465
1158,יהל,YAHEL,6,62,625.0,53.0,,1.0,194.0,194.0,181.0,,1976,330,15.0,2121044377.0,183.0,608.0,10001955.0,2018,Yahel,,Yahel,30.084234000000002,35.128393
2009,יובל,YUVAL,2,21,211.0,55.0,,1.0,625.0,624.0,622.0,1.0,1952,310,1.0,2561279464.0,175.0,253.0,10004591.0,2018,Yuval,211.0,Yuval,33.246577,35.597063
1226,יובלים,YUVALLIM,2,24,241.0,56.0,241.0,1.0,1105.0,1105.0,1097.0,,1982,370,7.0,2256375376.0,50.0,205.0,10004513.0,2018,Yuvallim,210.0,Yuvallim,32.878163,35.269294
1112,יודפת,YODEFAT,2,24,241.0,56.0,241.0,1.0,867.0,866.0,829.0,1.0,1960,320,15.0,2257674912.0,363.0,205.0,10004513.0,2018,Yodefat,210.0,Yodefat,32.836596,35.271481
4007,יונתן,YONATAN,2,29,293.0,71.0,,1.0,705.0,705.0,705.0,,1976,320,2.0,2746276049.0,529.0,219.0,10004579.0,2018,Yonatan,211.0,Yonatan,32.939659999999996,35.795468
803,יושיביה,YOSHIVYA,6,62,621.0,39.0,,1.0,667.0,666.0,665.0,1.0,1950,310,2.0,1628759479.0,120.0,651.0,10001930.0,2018,Yoshivya,620.0,Yoshivya,31.444699,34.608784
452,יזרעאל,YIZRE'EL,2,23,234.0,8.0,,1.0,556.0,556.0,535.0,,1948,330,15.0,2304071866.0,58.0,204.0,10004394.0,2018,Yizre'el,213.0,Yizre'el,32.562589,35.319425
409,יחיעם,YEHI'AM,2,24,243.0,4.0,,1.0,716.0,715.0,697.0,1.0,1946,330,15.0,2209876686.0,319.0,201.0,10004302.0,2018,Yehi'am,212.0,Yehi'am,32.996109000000004,35.221090999999994
866,יטבתה,YOTVATA,6,62,625.0,53.0,,1.0,696.0,696.0,677.0,,1951,330,15.0,2055542290.0,74.0,608.0,10001955.0,2018,Yotvata,,Yotvata,29.896321999999998,35.059227
3607,"ייט""ב",YITAV,7,75,,75.0,,1.0,348.0,348.0,325.0,,1970,320,15.0,2401765051.0,-130.0,712.0,10003262.0,2018,Yitav,,Yitav,31.947215000000003,35.422375
811,יכיני,YAKHINI,6,61,614.0,37.0,,1.0,717.0,716.0,710.0,1.0,1950,310,1.0,1619959912.0,114.0,651.0,10001829.0,2018,Yakhini,620.0,Yakhini,31.482205,34.598634000000004
753,ינוב,YANUV,4,41,411.0,18.0,141.0,1.0,933.0,933.0,920.0,,1950,310,1.0,1954569033.0,39.0,412.0,15000060.0,2018,Yanuv,,Yanuv,32.307431,34.951384000000004
2011,ינון,YINNON,6,61,611.0,33.0,143.0,1.0,1176.0,1172.0,1172.0,4.0,1952,310,1.0,1793762785.0,60.0,616.0,10001821.0,2018,Yinnon,420.0,Yinnon,31.741832000000002,34.780947
29,יסוד המעלה,YESUD HAMA'ALA,2,21,211.0,99.0,,1.0,1719.0,1719.0,1681.0,,1883,350,,2566377358.0,69.0,259.0,10004540.0,2018,Yesud HaMa'ala,211.0,Yesud HaMa'ala,33.05358,35.589013
440,יסודות,YESODOT,4,44,441.0,31.0,143.0,1.0,913.0,913.0,913.0,,1948,320,8.0,1873363588.0,87.0,456.0,15002488.0,2018,Yesodot,420.0,Yesodot,31.815834999999996,34.865636
575,יסעור,YAS'UR,2,24,246.0,4.0,241.0,1.0,856.0,851.0,836.0,5.0,1949,330,15.0,2158575622.0,16.0,201.0,10004315.0,2018,Yas'ur,212.0,Yas'ur,32.901145,35.166641
1138,יעד,YA'AD,2,24,241.0,56.0,241.0,1.0,682.0,682.0,682.0,,1975,310,1.0,2230775377.0,190.0,205.0,10004513.0,2018,Ya'ad,210.0,Ya'ad,32.881225,35.24064
1117,יעל,YA'EL,2,23,234.0,8.0,,,,,,,,510,,2291971752.0,70.0,204.0,10004394.0,2018,Ya'el,213.0,Ya'el,32.551988,35.30612
1044,יעף,YE'AF,4,41,411.0,18.0,141.0,1.0,308.0,308.0,304.0,,1968,350,,1970268605.0,50.0,412.0,15000060.0,2018,Ye'af,,Ye'af,32.268254,34.967425
795,יערה,YA'ARA,2,24,244.0,52.0,,1.0,741.0,619.0,602.0,122.0,1950,310,1.0,2177877469.0,110.0,255.0,10004302.0,2018,Ya'ara,212.0,Ya'ara,33.068013,35.18608
499,יפיע,YAFI,2,25,237.0,99.0,,2.0,18905.0,9.0,2.0,18896.0,,270,,2261573224.0,212.0,257.0,10004426.0,2018,Yafi,213.0,Yafi,32.049357,34.758355
3566,יפית,YAFIT,7,75,,75.0,,1.0,197.0,197.0,191.0,,1980,310,1.0,2449066340.0,-261.0,712.0,10003262.0,2018,Yafit,,Yafit,32.062687,35.474317
134,יפעת,YIF'AT,2,23,234.0,9.0,,1.0,1152.0,1151.0,1127.0,1.0,1926,330,15.0,2212773145.0,100.0,254.0,10004411.0,2018,Yif'at,213.0,Yif'at,32.675853000000004,35.223982
453,יפתח,YIFTAH,2,21,212.0,1.0,,1.0,539.0,539.0,497.0,,1948,330,15.0,2518578154.0,389.0,253.0,10004591.0,2018,Yiftah,211.0,Yiftah,33.128346,35.55203
3749,יצהר,YIZHAR,7,72,,72.0,,1.0,1635.0,1635.0,1635.0,,1983,370,11.0,2225767495.0,664.0,710.0,10003262.0,2018,Yizhar,,Yizhar,32.169669,35.236428000000004
759,יציץ,YAZIZ,4,43,432.0,30.0,143.0,1.0,821.0,821.0,803.0,,1950,310,1.0,1868964119.0,60.0,426.0,10002241.0,2018,Yaziz,,Yaziz,31.863226,34.861903000000005
417,יקום,YAQUM,4,41,411.0,19.0,141.0,1.0,749.0,749.0,719.0,,1947,330,15.0,1853068397.0,10.0,401.0,15000060.0,2018,Yaqum,,Yaqum,32.249196000000005,34.841903
3647,יקיר,YAQIR,7,73,,72.0,145.0,1.0,2183.0,2183.0,2175.0,,1981,190,,2108767292.0,354.0,710.0,10003262.0,2018,Yaqir,,Yaqir,32.149831,35.114631
241,יקנעם (מושבה),YOQNE'AM(MOSHAVA),2,23,235.0,13.0,,1.0,1398.0,1398.0,1376.0,,1935,310,10.0,2110672890.0,44.0,254.0,10004394.0,2018,Yoqne'am(Moshava),213.0,Yoqne'am(Moshava),32.655859,35.115152
240,יקנעם עילית,YOQNE'AM ILLIT,2,23,235.0,0.0,223.0,1.0,23311.0,23291.0,21259.0,20.0,1950,160,,2091772807.0,57.0,222.0,10004394.0,2018,Yoqne'am Illit,,Yoqne'am Illit,32.660225,35.104606
623,יראון,YIR'ON,2,24,244.0,1.0,,1.0,410.0,410.0,352.0,,1949,330,15.0,2428677582.0,651.0,253.0,10004528.0,2018,Yir'on,211.0,Yir'on,33.077239,35.454291
2026,ירדנה,YARDENA,2,23,231.0,7.0,,1.0,371.0,371.0,371.0,,1952,310,1.0,2532871906.0,-249.0,202.0,10004568.0,2018,Yardena,214.0,Yardena,32.565357,35.565978
831,ירוחם,YEROHAM,6,62,626.0,99.0,,1.0,9974.0,9672.0,8980.0,302.0,1951,180,,1930754414.0,366.0,612.0,10001918.0,2018,Yeroham,610.0,Yeroham,30.987803999999997,34.929741
3000,ירושלים,JERUSALEM,1,11,111.0,0.0,410.0,4.0,919438.0,569866.0,555845.0,349572.0,ותיק,120,,2209463223.0,419.0,101.0,10002489.0,2018,Jerusalem,,Jerusalem,31.768319,35.21371
718,ירחיב,YARHIV,4,42,421.0,20.0,142.0,1.0,1086.0,1086.0,1079.0,,1949,310,1.0,1971367328.0,40.0,417.0,15000658.0,2018,Yarhiv,,Yarhiv,32.151536,34.967991999999995
502,ירכא,YIRKA,2,24,243.0,99.0,,2.0,17003.0,81.0,70.0,16922.0,,270,,2197076217.0,68.0,252.0,10004315.0,2018,Yirka,,Yirka,32.953492,35.21199
183,ירקונה,YARQONA,4,42,421.0,20.0,142.0,1.0,366.0,366.0,365.0,,1932,310,1.0,1904967246.0,25.0,417.0,10002133.0,2018,Yarqona,,Yarqona,32.144524,34.897882
916,ישע,YESHA,6,62,622.0,38.0,,1.0,410.0,410.0,395.0,,1957,310,1.0,1430657316.0,111.0,651.0,10001893.0,2018,Yesha,620.0,Yesha,31.247595,34.403090999999996
805,ישעי,YISH'I,1,11,112.0,26.0,444.0,1.0,760.0,760.0,759.0,,1950,310,2.0,1968262879.0,175.0,151.0,15000597.0,2018,Yish'i,,Yish'i,31.752969,34.962586
828,ישרש,YASHRESH,4,43,432.0,30.0,143.0,1.0,1010.0,1010.0,1005.0,,1950,310,1.0,1857564697.0,68.0,426.0,10002228.0,2018,Yashresh,,Yashresh,31.915667,34.847336999999996
1227,יתד,YATED,6,62,622.0,38.0,,1.0,461.0,461.0,448.0,,1981,310,1.0,1359656860.0,80.0,651.0,10001893.0,2018,Yated,620.0,Yated,31.207041999999998,34.326126
504,כאבול,KABUL,2,24,241.0,99.0,241.0,2.0,13854.0,14.0,5.0,13840.0,,270,,2198675277.0,20.0,263.0,15002411.0,2018,Kabul,,Kabul,32.869973699999996,35.205437599999996
505,כאוכב אבו אל-היג'א,KAOKAB ABU AL-HIJA,2,24,241.0,99.0,241.0,2.0,3526.0,5.0,2.0,3521.0,,290,,2235974843.0,248.0,261.0,10004513.0,2018,Kaokab Abu Al-Hija,,Kaokab Abu Al-Hija,32.831888,35.248701000000004
576,כברי,KABRI,2,24,245.0,4.0,,1.0,1051.0,1048.0,1028.0,3.0,1949,330,15.0,2141876954.0,64.0,201.0,10004302.0,2018,Kabri,212.0,Kabri,33.020984999999996,35.147007
371,כדורי,KADOORIE,2,22,222.0,3.0,,1.0,245.0,210.0,140.0,35.0,1931,340,,2382773464.0,110.0,206.0,10004552.0,2018,Kadoorie,214.0,Kadoorie,32.702839399999995,35.40666470000001
1338,כדיתה,KADDITA,2,21,212.0,2.0,,1.0,186.0,186.0,178.0,,2009,370,10.0,2437276776.0,696.0,209.0,10004528.0,2018,Kaddita,211.0,Kaddita,33.005953999999996,35.468309000000005
3564,כוכב השחר,KOKHAV HASHAHAR,7,74,,73.0,445.0,1.0,2122.0,2122.0,2122.0,,1977,190,,2330665192.0,519.0,711.0,10003299.0,2018,Kokhav HaShahar,,Kokhav HaShahar,31.960264000000002,35.349421
1224,כוכב יאיר,KOKHAV YA'IR,4,42,421.0,99.0,141.0,1.0,8773.0,8764.0,8669.0,9.0,1981,180,,1997868091.0,67.0,455.0,10002155.0,2018,Kokhav Ya'ir,,Kokhav Ya'ir,32.220921999999995,34.992405
3779,כוכב יעקב,KOKHAV YA'AQOV,7,74,,73.0,445.0,1.0,8194.0,8194.0,8186.0,,1985,180,,2231064307.0,669.0,711.0,10003299.0,2018,Kokhav Ya'aqov,,Kokhav Ya'aqov,31.880152000000002,35.242773
824,כוכב מיכאל,KOKHAV MIKHA'EL,6,61,614.0,36.0,,1.0,1053.0,1053.0,1028.0,,1950,310,1.0,1686861528.0,81.0,633.0,10001829.0,2018,Kokhav Mikha'el,,Kokhav Mikha'el,31.631482000000002,34.667794
1252,כורזים,KORAZIM,2,21,213.0,55.0,,1.0,342.0,342.0,332.0,,1983,350,7.0,2518675735.0,118.0,253.0,10004540.0,2018,Korazim,211.0,Korazim,32.911389,35.563889
1210,כחל,KAHAL,2,21,212.0,55.0,,1.0,424.0,424.0,415.0,,1980,310,1.0,2480675516.0,50.0,253.0,10004540.0,2018,Kahal,211.0,Kahal,32.890465,35.511571999999994
1367,כחלה,KOCHLEA,6,62,623.0,69.0,,2.0,394.0,,,394.0,,450,,2050657758.0,508.0,624.0,10001937.0,2018,Kochlea,610.0,Kochlea,31.288358000000002,35.048528999999995
840,כיסופים,KISSUFIM,6,62,622.0,38.0,,1.0,238.0,236.0,213.0,2.0,1951,330,15.0,1428458732.0,80.0,651.0,10001893.0,2018,Kissufim,620.0,Kissufim,31.374545,34.398992
1153,כישור,KISHOR,2,24,243.0,56.0,,1.0,184.0,183.0,182.0,1.0,1976,330,15.0,2237176123.0,449.0,205.0,15002358.0,2018,Kishor,210.0,Kishor,32.946651,35.250213
1183,כליל,KELIL,2,24,243.0,4.0,,1.0,705.0,701.0,672.0,4.0,1979,370,10.0,2191176514.0,109.0,201.0,10004302.0,2018,Kelil,212.0,Kelil,32.983567,35.199672
1229,כלנית,KALLANIT,2,21,214.0,2.0,,1.0,226.0,226.0,225.0,,1981,310,2.0,2429675339.0,-2.0,209.0,10004552.0,2018,Kallanit,211.0,Kallanit,32.875328,35.453972
1331,כמאנה,KAMANE,2,24,242.0,56.0,,2.0,1495.0,,,1495.0,,450,,2331475760.0,449.0,205.0,10004465.0,2018,Kamane,210.0,Kamane,32.909310999999995,35.336928
1291,כמהין,KEMEHIN,6,62,626.0,48.0,,1.0,182.0,182.0,164.0,,1988,310,1.0,1455653579.0,220.0,620.0,10001918.0,2018,Kemehin,610.0,Kemehin,30.910327000000002,34.430725
1201,כמון,KAMMON,2,24,242.0,56.0,,1.0,1384.0,1384.0,1358.0,,1980,370,7.0,2339975746.0,498.0,205.0,10004465.0,2018,Kammon,210.0,Kammon,32.909119,35.360915999999996
2006,כנות,KANNOT,6,61,611.0,33.0,143.0,1.0,439.0,435.0,366.0,4.0,1952,340,,1766263444.0,61.0,616.0,10001821.0,2018,Kannot,420.0,Kannot,31.802752,34.750993
4028,כנף,KANAF,2,29,293.0,71.0,,1.0,461.0,461.0,459.0,,1991,310,1.0,2658275286.0,270.0,219.0,10004579.0,2018,Kanaf,211.0,Kanaf,32.870412,35.697897
63,כנרת (מושבה),KINNERET(MOSHAVA),2,22,221.0,6.0,,1.0,688.0,672.0,656.0,16.0,1909,350,,2532473678.0,-213.0,251.0,10004552.0,2018,Kinneret(Moshava),214.0,Kinneret(Moshava),32.723787,35.565242
57,כנרת (קבוצה),KINNERET(QEVUZA),2,22,221.0,6.0,,1.0,687.0,687.0,658.0,,1908,330,15.0,2529873551.0,-199.0,214.0,10004552.0,2018,Kinneret(Qevuza),214.0,Kinneret(Qevuza),32.8244321,35.5879975
1059,כסיפה,KUSEIFE,6,62,623.0,99.0,,2.0,21079.0,5.0,1.0,21074.0,,260,,2084057247.0,420.0,652.0,15003711.0,2018,Kuseife,610.0,Kuseife,31.249246000000003,35.083681
859,כסלון,KESALON,1,11,111.0,26.0,444.0,1.0,428.0,428.0,408.0,,1952,310,10.0,2047663127.0,533.0,151.0,15000597.0,2018,Kesalon,,Kesalon,31.774262,35.048171
1296,כסרא-סמיע,KISRA-SUMEI,2,24,243.0,99.0,,2.0,8649.0,3.0,,8646.0,,280,,2287976386.0,487.0,255.0,10004484.0,2018,Kisra-Sumei,,Kisra-Sumei,32.97232,35.298528000000005
978,כעביה-טבאש-חג'אג'רה,KA'ABIYYE-TABBASH-HAJAJRE,2,25,237.0,99.0,242.0,2.0,5408.0,14.0,13.0,5394.0,,280,,2176673948.0,63.0,254.0,10004411.0,2018,Ka'abiyye-Tabbash-Hajajre,,Ka'abiyye-Tabbash-Hajajre,32.750389,35.184
857,כפר אביב,KEFAR AVIV,4,44,441.0,32.0,143.0,1.0,804.0,803.0,795.0,1.0,1951,310,10.0,1736963771.0,30.0,456.0,15002488.0,2018,Kefar Aviv,,Kefar Aviv,31.831039,34.722577
3638,כפר אדומים,KEFAR ADUMMIM,7,74,,73.0,445.0,1.0,4513.0,4513.0,4499.0,,1979,190,,2321863714.0,190.0,711.0,10003314.0,2018,Kefar Adummim,,Kefar Adummim,31.827215999999996,35.337189
364,כפר אוריה,KEFAR URIYYA,1,11,112.0,26.0,444.0,1.0,924.0,919.0,905.0,5.0,1944,310,1.0,1950363342.0,158.0,151.0,15000597.0,2018,Kefar Uriyya,,Kefar Uriyya,31.793398999999997,34.944757
690,כפר אחים,KEFAR AHIM,6,61,611.0,33.0,143.0,1.0,868.0,868.0,857.0,,1949,310,1.0,1770562808.0,48.0,616.0,10001821.0,2018,Kefar Ahim,420.0,Kefar Ahim,31.745864,34.755932
220,כפר ביאליק,KEFAR BIALIK,3,31,311.0,12.0,222.0,1.0,844.0,840.0,800.0,4.0,1934,310,,2084074741.0,9.0,301.0,10004207.0,2018,Kefar Bialik,,Kefar Bialik,32.821376,35.087749
177,"כפר ביל""ו",KEFAR BILU,4,44,441.0,30.0,143.0,1.0,1261.0,1261.0,1246.0,,1932,310,1.0,1836164227.0,50.0,426.0,10002241.0,2018,Kefar Bilu,,Kefar Bilu,31.870475,34.826734
357,כפר בלום,KEFAR BLUM,2,21,211.0,1.0,,1.0,771.0,771.0,737.0,,1943,330,15.0,2572678641.0,75.0,253.0,10004591.0,2018,Kefar Blum,211.0,Kefar Blum,33.172527,35.607938
2010,כפר בן נון,KEFAR BIN NUN,4,43,432.0,30.0,143.0,1.0,736.0,734.0,723.0,2.0,1952,310,10.0,1951064104.0,140.0,426.0,10002228.0,2018,Kefar Bin Nun,,Kefar Bin Nun,31.861679,34.947191
633,כפר ברא,KAFAR BARA,4,42,422.0,99.0,142.0,2.0,3594.0,1.0,,3593.0,,290,,1973967086.0,49.0,451.0,15000658.0,2018,Kafar Bara,410.0,Kafar Bara,32.130911,34.970108
132,כפר ברוך,KEFAR BARUKH,2,23,234.0,9.0,,1.0,579.0,579.0,572.0,,1926,310,1.0,2181772798.0,45.0,254.0,10004411.0,2018,Kefar Barukh,213.0,Kefar Barukh,32.646048,35.193078
106,כפר גדעון,KEFAR GID'ON,2,23,234.0,9.0,,1.0,348.0,348.0,346.0,,1923,310,19.0,2276072774.0,83.0,254.0,10004394.0,2018,Kefar Gid'on,213.0,Kefar Gid'on,32.644579,35.289278
427,כפר גלים,KEFAR GALLIM,3,32,321.0,15.0,223.0,1.0,379.0,364.0,251.0,15.0,1952,340,,1964574128.0,11.0,399.0,10004710.0,2018,Kefar Gallim,,Kefar Gallim,32.76615,34.959511
310,כפר גליקסון,KEFAR GLIKSON,3,32,324.0,14.0,,1.0,323.0,323.0,319.0,,1939,330,6.0,2006571239.0,50.0,351.0,10004333.0,2018,Kefar Glikson,,Kefar Glikson,32.505824,35.00354
76,כפר גלעדי,KEFAR GIL'ADI,2,21,211.0,1.0,,1.0,676.0,675.0,630.0,1.0,1916,330,15.0,2539579418.0,257.0,253.0,10004591.0,2018,Kefar Gil'adi,211.0,Kefar Gil'adi,33.242078,35.574141999999995
707,כפר דניאל,KEFAR DANIYYEL,4,43,431.0,25.0,142.0,1.0,715.0,715.0,706.0,,1949,320,15.0,1937364901.0,80.0,424.0,10002261.0,2018,Kefar Daniyyel,,Kefar Daniyyel,31.933521000000002,34.932306
3796,כפר האורנים,KEFAR HAORANIM,7,74,,73.0,,1.0,2664.0,2664.0,2651.0,,1998,190,,2036264742.0,270.0,711.0,10004054.0,2018,Kefar HaOranim,,Kefar HaOranim,31.919928000000002,35.036910999999996
192,כפר החורש,KEFAR HAHORESH,2,23,237.0,9.0,,1.0,696.0,696.0,677.0,,1933,330,15.0,2258873404.0,318.0,254.0,10004411.0,2018,Kefar HaHoresh,213.0,Kefar HaHoresh,32.701549,35.272956
254,כפר המכבי,KEFAR HAMAKKABBI,3,31,311.0,12.0,222.0,1.0,372.0,372.0,371.0,,1936,330,15.0,2112174384.0,18.0,301.0,10004207.0,2018,Kefar HaMakkabbi,,Kefar HaMakkabbi,32.791804,35.114793
582,כפר הנגיד,KEFAR HANAGID,4,44,442.0,27.0,143.0,1.0,1233.0,1233.0,1211.0,,1949,310,1.0,1764264395.0,20.0,456.0,15002488.0,2018,Kefar HaNagid,,Kefar HaNagid,31.887134000000003,34.748725
890,כפר הנוער הדתי,KEFAR HANO'AR HADATI,3,31,311.0,12.0,222.0,1.0,223.0,223.0,175.0,,1937,340,,2095073872.0,20.0,301.0,10004207.0,2018,Kefar HaNo'ar Hadati,,Kefar HaNo'ar Hadati,32.742897,35.09615
443,כפר הנשיא,KEFAR HANASI,2,21,213.0,1.0,,1.0,864.0,864.0,836.0,,1948,330,15.0,2567576448.0,237.0,253.0,10004540.0,2018,Kefar HaNasi,211.0,Kefar HaNasi,32.97466,35.602308
187,כפר הס,KEFAR HESS,4,41,411.0,18.0,141.0,1.0,1577.0,1577.0,1564.0,,1933,310,1.0,1939568366.0,60.0,412.0,15000060.0,2018,Kefar Hess,,Kefar Hess,32.247721000000006,34.935137
217,"כפר הרא""ה",KEFAR HARO'E,4,41,411.0,16.0,141.0,1.0,1439.0,1439.0,1437.0,,1934,310,2.0,1919269967.0,10.0,409.0,15000060.0,2018,Kefar HaRo'e,,Kefar HaRo'e,32.391037,34.910917
888,"כפר הרי""ף",KEFAR HARIF,6,61,611.0,35.0,,1.0,836.0,836.0,809.0,,1956,310,10.0,1804462818.0,61.0,632.0,10001821.0,2018,Kefar Harif,420.0,Kefar Harif,31.747028999999998,34.790928
190,כפר ויתקין,KEFAR VITKIN,4,41,411.0,16.0,141.0,1.0,2013.0,2011.0,1994.0,2.0,1933,191,,1887369867.0,7.0,409.0,15000060.0,2018,Kefar Vitkin,,Kefar Vitkin,32.380541,34.875308000000004
320,כפר ורבורג,KEFAR WARBURG,6,61,611.0,33.0,143.0,1.0,1142.0,1142.0,1128.0,,1939,310,1.0,1741662526.0,48.0,616.0,10001821.0,2018,Kefar Warburg,420.0,Kefar Warburg,31.718746999999997,34.72868
1263,כפר ורדים,KEFAR WERADIM,2,24,243.0,99.0,,1.0,5578.0,5461.0,5251.0,117.0,1984,180,,2255076676.0,399.0,255.0,10004484.0,2018,Kefar Weradim,212.0,Kefar Weradim,32.995088,35.269101
1325,כפר זוהרים,KEFAR ZOHARIM,1,11,112.0,26.0,,1.0,155.0,155.0,155.0,,1995,340,,1929261436.0,290.0,151.0,15000597.0,2018,Kefar Zoharim,,Kefar Zoharim,31.622631,34.925669
786,כפר זיתים,KEFAR ZETIM,2,22,222.0,3.0,,1.0,778.0,777.0,777.0,1.0,1950,310,1.0,2437674633.0,27.0,206.0,10004552.0,2018,Kefar Zetim,214.0,Kefar Zetim,32.811614,35.465165
696,"כפר חב""ד",KEFAR HABAD,4,43,432.0,40.0,133.0,1.0,6421.0,6421.0,6414.0,,1949,180,,1859965527.0,31.0,425.0,10002207.0,2018,Kefar Habad,,Kefar Habad,31.990144,34.849103
609,כפר חושן,KEFAR HOSHEN,2,21,212.0,2.0,,1.0,787.0,787.0,784.0,,1949,310,1.0,2414876857.0,718.0,209.0,10004528.0,2018,Kefar Hoshen,211.0,Kefar Hoshen,33.013123,35.440171
255,כפר חיטים,KEFAR HITTIM,2,22,222.0,3.0,,1.0,619.0,619.0,613.0,,1936,320,1.0,2474174517.0,-13.0,206.0,10004552.0,2018,Kefar Hittim,214.0,Kefar Hittim,32.799997999999995,35.50328
193,כפר חיים,KEFAR HAYYIM,4,41,411.0,16.0,141.0,1.0,619.0,618.0,616.0,1.0,1933,310,1.0,1908269563.0,14.0,409.0,15000060.0,2018,Kefar Hayyim,,Kefar Hayyim,32.353857,34.900709
1297,כפר חנניה,KEFAR HANANYA,2,21,212.0,2.0,,1.0,733.0,733.0,719.0,,1990,370,2.0,2399275781.0,281.0,209.0,10004465.0,2018,Kefar Hananya,211.0,Kefar Hananya,32.915993,35.423784999999995
112,כפר חסידים א',KEFAR HASIDIM ALEF,3,31,311.0,12.0,222.0,1.0,834.0,825.0,814.0,9.0,1924,310,19.0,2089873955.0,8.0,301.0,10004207.0,2018,Kefar Hasidim Alef,,Kefar Hasidim Alef,32.752262,35.094212
889,כפר חסידים ב',KEFAR HASIDIM BET,3,31,311.0,12.0,222.0,1.0,335.0,334.0,295.0,1.0,1950,350,,2084973948.0,10.0,301.0,10004207.0,2018,Kefar Hasidim Bet,,Kefar Hasidim Bet,32.750515,35.088281
4004,כפר חרוב,KEFAR HARUV,2,29,294.0,71.0,,1.0,421.0,421.0,416.0,,1974,330,15.0,2624074092.0,271.0,219.0,10004579.0,2018,Kefar Haruv,211.0,Kefar Haruv,32.762357,35.66418
673,כפר טרומן,KEFAR TRUMAN,4,43,432.0,25.0,142.0,1.0,901.0,901.0,884.0,,1949,310,1.0,1929765418.0,47.0,424.0,10002168.0,2018,Kefar Truman,,Kefar Truman,31.980493,34.927696000000005
507,כפר יאסיף,KAFAR YASIF,2,24,245.0,99.0,,2.0,10029.0,21.0,9.0,10008.0,,270,,2155976211.0,34.0,252.0,10004315.0,2018,Kafar Yasif,,Kafar Yasif,32.9520318,35.1599957
233,כפר ידידיה,KEFAR YEDIDYA,4,41,411.0,16.0,141.0,1.0,743.0,743.0,739.0,,1935,310,1.0,1906569469.0,16.0,409.0,15000060.0,2018,Kefar Yedidya,,Kefar Yedidya,32.344902000000005,34.899038
140,כפר יהושע,KEFAR YEHOSHUA,2,23,235.0,9.0,,1.0,1221.0,1221.0,1187.0,,1927,310,1.0,2145773196.0,30.0,254.0,10004411.0,2018,Kefar Yehoshua,213.0,Kefar Yehoshua,32.681639000000004,35.151976
168,כפר יונה,KEFAR YONA,4,41,411.0,0.0,141.0,1.0,23060.0,23050.0,22470.0,10.0,1932,160,,1937869133.0,20.0,430.0,15000060.0,2018,Kefar Yona,,Kefar Yona,32.317719,34.933615
85,כפר יחזקאל,KEFAR YEHEZQEL,2,23,232.0,8.0,,1.0,1176.0,1173.0,1138.0,3.0,1921,310,1.0,2340571922.0,-24.0,204.0,10004394.0,2018,Kefar Yehezqel,213.0,Kefar Yehezqel,32.566949,35.360888
170,כפר יעבץ,KEFAR YA'BEZ,4,41,411.0,18.0,141.0,1.0,644.0,644.0,643.0,,1932,310,2.0,1969468679.0,42.0,412.0,15000060.0,2018,Kefar Ya'bez,,Kefar Ya'bez,32.273948,34.965196999999996
508,כפר כמא,KAFAR KAMA,2,22,222.0,99.0,,2.0,3332.0,12.0,9.0,3320.0,,290,,2415873638.0,120.0,251.0,10004552.0,2018,Kafar Kama,214.0,Kafar Kama,32.721105,35.442834000000005
509,כפר כנא,KAFAR KANNA,2,25,237.0,99.0,,2.0,22399.0,16.0,9.0,22383.0,,260,,2323673910.0,169.0,257.0,15002369.0,2018,Kafar Kanna,213.0,Kafar Kanna,32.7481978,35.3438402
387,כפר מונש,KEFAR MONASH,4,41,411.0,16.0,141.0,1.0,958.0,958.0,933.0,,1946,310,1.0,1923169488.0,9.0,409.0,15000060.0,2018,Kefar Monash,,Kefar Monash,32.345607,34.916426
1095,כפר מימון,KEFAR MAYMON,6,62,621.0,39.0,,1.0,340.0,340.0,340.0,,1959,310,2.0,1558959355.0,90.0,651.0,10001930.0,2018,Kefar Maymon,620.0,Kefar Maymon,31.431401,34.53718
98,"כפר מל""ל",KEFAR MALAL,4,42,421.0,20.0,131.0,1.0,328.0,328.0,322.0,,1922,310,1.0,1901767499.0,50.0,417.0,10002133.0,2018,Kefar Malal,,Kefar Malal,32.167567,34.894744
510,כפר מנדא,KAFAR MANDA,2,24,241.0,99.0,,2.0,19843.0,6.0,3.0,19837.0,,270,,2247174613.0,150.0,261.0,10004513.0,2018,Kafar Manda,,Kafar Manda,32.81236,35.258613000000004
274,כפר מנחם,KEFAR MENAHEM,6,61,611.0,35.0,,1.0,1365.0,1365.0,1337.0,,1937,330,15.0,1842462639.0,89.0,632.0,10001821.0,2018,Kefar Menahem,420.0,Kefar Menahem,31.732077,34.835079
297,כפר מסריק,KEFAR MASARYK,2,24,246.0,4.0,241.0,1.0,831.0,830.0,811.0,1.0,1938,330,15.0,2097075506.0,3.0,201.0,10004315.0,2018,Kefar Masaryk,212.0,Kefar Masaryk,32.891218,35.098414
512,כפר מצר,KAFAR MISR,2,25,233.0,66.0,,2.0,2714.0,2.0,,2712.0,,290,,2398772793.0,89.0,251.0,10004394.0,2018,Kafar Misr,213.0,Kafar Misr,32.647371,35.421551
764,כפר מרדכי,KEFAR MORDEKHAY,4,44,441.0,32.0,143.0,1.0,644.0,644.0,636.0,,1950,310,10.0,1769063771.0,30.0,456.0,15002488.0,2018,Kefar Mordekhay,,Kefar Mordekhay,31.831504,34.756643
316,כפר נטר,KEFAR NETTER,4,41,411.0,19.0,141.0,1.0,1222.0,1222.0,1208.0,,1939,310,10.0,1881168690.0,10.0,401.0,15000060.0,2018,Kefar Netter,,Kefar Netter,32.271928,34.871978999999996
345,כפר סאלד,KEFAR SZOLD,2,21,211.0,1.0,,1.0,632.0,631.0,606.0,1.0,1942,330,15.0,2617578900.0,90.0,253.0,10004591.0,2018,Kefar Szold,211.0,Kefar Szold,33.196034999999995,35.657993
